address,city,state,Latitude,Longitude,Zip
1333 UNIVERSITY AVE,BOULDER,Colorado,40.010846,-105.275199,80302
350 ARAPAHOE AVE,BOULDER,Colorado,40.012139,-105.292807,80302
1165 10TH ST,BOULDER,Colorado,40.008529,-105.280294,80302
2867 SPRINGDALE LN,BOULDER,Colorado,40.00931,-105.256693,80303
4663 16TH ST,BOULDER,Colorado,40.059404,-105.277919,80304
1 ARNETT HALL,BOULDER,Colorado,40.049468,-105.201421,80301
7097 JAY RD,BOULDER,Colorado,40.051147,-105.188384,80301
5087 MERRITT DR,BOULDER,Colorado,40.012666,-105.231075,80303
720 PEAKVIEW RD,BOULDER,Colorado,40.095664,-105.325386,80302
395 PINE BROOK RD,BOULDER,Colorado,40.057186,-105.317609,80304
830 20TH ST,BOULDER,Colorado,40.002532,-105.267356,80302
4866 FRANKLIN DR,BOULDER,Colorado,40.031883,-105.240572,80301
975 PLEASANT ST,BOULDER,Colorado,40.009742,-105.28028,80302
1300 30TH ST,BOULDER,Colorado,40.009274,-105.253324,80303
920 MARINE ST,BOULDER,Colorado,40.011785,-105.282368,80302
6125 HABITAT DR,BOULDER,Colorado,40.061148,-105.210808,80301
3601 ARAPAHOE AVE,BOULDER,Colorado,40.015076,-105.247502,80303
1841 19TH ST,BOULDER,Colorado,40.018057,-105.270695,80302
4595 LAGUNA PL,BOULDER,Colorado,39.998328,-105.236785,80303
424 S LASHLEY LN,BOULDER,Colorado,39.988541,-105.253439,80305
2133 5TH ST,BOULDER,Colorado,40.017885,-105.29023,80302
1459 WHITE HAWK RANCH DR,BOULDER,Colorado,40.013143,-105.142929,80303
2605 BUCKINGHAM HALL,BOULDER,Colorado,40.049468,-105.201421,80301
1878 4 MILE CANYON DR,BOULDER,Colorado,40.430295,-104.708156,80631
4820 THUNDERBIRD CIR,BOULDER,Colorado,39.988668,-105.233714,80303
1823 22ND ST,BOULDER,Colorado,40.01819,-105.266722,80302
905 MARINE ST,BOULDER,Colorado,40.012166,-105.28285,80302
7574 SPRING DR,BOULDER,Colorado,39.977267,-105.175747,80303
619 MARINE ST,BOULDER,Colorado,40.01205,-105.286634,80302
3035 ONEAL PKWY,BOULDER,Colorado,40.03427,-105.252784,80301
166 KELLY RD E,BOULDER,Colorado,40.0127,-105.351873,80302
490 ERIE DR,BOULDER,Colorado,39.998051,-105.24445,80303
1601 MARIPOSA AVE,BOULDER,Colorado,39.998477,-105.272239,80302
3150 LANE CT,BOULDER,Colorado,39.971865,-105.254683,80305
7034 INDIAN PEAKS TRL,BOULDER,Colorado,40.061282,-105.187534,80301
5354 MUIRFIELD CT,BOULDER,Colorado,40.071859,-105.184763,80301
4900 THUNDERBIRD DR,BOULDER,Colorado,39.994827,-105.23277,80303
474 LEONARDS RD,BOULDER,Colorado,40.0363,-105.334337,80302
1810 HILLSIDE RD,BOULDER,Colorado,40.011322,-105.270727,80302
980 ZAMIA AVE,BOULDER,Colorado,40.060601,-105.284816,80304
1520 WILDWOOD LN,BOULDER,Colorado,39.974962,-105.26457,80305
950 28TH ST,BOULDER,Colorado,40.005621,-105.25754,80303
4750 CARTER TRL,BOULDER,Colorado,40.060937,-105.191274,80301
2731 JUNIPER AVE,BOULDER,Colorado,40.038112,-105.259913,80304
4747 TABLE MESA DR,BOULDER,Colorado,39.986183,-105.237114,80305
6951 OLDE STAGE RD,BOULDER,Colorado,40.100761,-105.303486,80302
3960 GREENBRIAR BLVD,BOULDER,Colorado,39.969472,-105.246965,80305
1656 BEAR MOUNTAIN DR,BOULDER,Colorado,39.971906,-105.263376,80305
1155 MARINE ST,BOULDER,Colorado,40.013042,-105.279037,80302
4676 WHITE ROCK CIR,BOULDER,Colorado,40.058474,-105.212948,80301
3800 COLORADO AVE,BOULDER,Colorado,40.006027,-105.24596,80303
1831 22ND ST,BOULDER,Colorado,40.018286,-105.266634,80302
128 IROQUOIS DR,BOULDER,Colorado,39.98883,-105.228151,80303
3530 BERKLEY AVE,BOULDER,Colorado,39.992549,-105.251479,80305
3665 PAONIA ST,BOULDER,Colorado,40.041902,-105.253543,80301
4250 GRINNELL AVE,BOULDER,Colorado,39.976621,-105.246931,80305
1544 NORTH ST,BOULDER,Colorado,40.024369,-105.276723,80304
3275 APACHE RD,BOULDER,Colorado,39.997265,-105.250782,80310
3195 PEARL PKWY,BOULDER,Colorado,40.024301,-105.250846,80301
3977 BOSQUE CT,BOULDER,Colorado,40.047181,-105.252699,80301
2510 47th  st  unit c,BOULDER,Colorado,40.025723,-105.243869,80301
1444 FOLSOM ST,BOULDER,Colorado,40.012304,-105.262577,80302
4955 TESLA CIR,BOULDER,Colorado,40.033001,-105.237384,80301
190 IROQUOIS DR,BOULDER,Colorado,39.990192,-105.228972,80303
2795 ILIFF ST,BOULDER,Colorado,39.971306,-105.25678,80305
1782 GARLAND LN,BOULDER,Colorado,40.033227,-105.273365,80304
5295 N 51ST ST,BOULDER,Colorado,40.070894,-105.235686,80301
1002 MAPLETON AVE,BOULDER,Colorado,40.020222,-105.283536,80304
2800 KALMIA AVE,BOULDER,Colorado,40.038139,-105.257332,80301
1385 DREXEL ST,BOULDER,Colorado,39.975487,-105.252335,80305
308 ARAPAHOE AVE,BOULDER,Colorado,40.010432,-105.295155,80302
6715 LAKEVIEW DR,BOULDER,Colorado,40.003553,-105.196908,80303
169 N 76TH ST,BOULDER,Colorado,39.988064,-105.176115,80303
2225 WALNUT ST,BOULDER,Colorado,40.020083,-105.265892,80302
1530 KENDALL DR,BOULDER,Colorado,39.972972,-105.258882,80305
525 13TH ST,BOULDER,Colorado,39.998489,-105.276506,80302
1400 RIVERSIDE AVE,BOULDER,Colorado,40.049847,-105.280136,80304
1834 ARAPAHOE AVE,BOULDER,Colorado,40.014363,-105.270757,80302
2365 PANORAMA AVE,BOULDER,Colorado,40.026511,-105.265847,80304
182 CHEROKEE WAY,BOULDER,Colorado,39.989957,-105.229901,80303
3120 PEARL PKWY,BOULDER,Colorado,40.022929,-105.251246,80301
2950 BIXBY LN,BOULDER,Colorado,40.00209,-105.254997,80303
4871 BROADWAY,BOULDER,Colorado,40.063108,-105.282855,80302
1485 TOBYS LN,BOULDER,Colorado,40.013148,-105.224483,80303
2900 SHADOW CREEK DR,BOULDER,Colorado,40.010011,-105.255724,80303
77 PEAKVIEW RD,BOULDER,Colorado,40.091149,-105.335228,80302
3600 CONIFER CT,BOULDER,Colorado,40.040155,-105.278369,80304
1285 HARTFORD DR,BOULDER,Colorado,39.976751,-105.255906,80305
4748 ELDORADO SPRINGS DR,BOULDER,Colorado,39.947542,-105.241992,80303
244 VAQUERO DR,BOULDER,Colorado,39.981791,-105.180515,80303
4789 TANTRA DR,BOULDER,Colorado,39.983037,-105.237495,80305
1145 10TH ST,BOULDER,Colorado,40.008171,-105.280294,80302
2888 LOMA PL,BOULDER,Colorado,40.041681,-105.255387,80301
3030 ONEAL PKWY,BOULDER,Colorado,40.033275,-105.252961,80301
3344 16TH ST,BOULDER,Colorado,40.035675,-105.27667,80304
200 KIOWA PL,BOULDER,Colorado,39.991856,-105.240836,80303
1855 ATHENS ST,BOULDER,Colorado,40.012913,-105.270861,80302
940 S 46TH ST,BOULDER,Colorado,39.980959,-105.241419,80305
3285 MOORHEAD AVE,BOULDER,Colorado,39.996631,-105.253307,80305
833 19TH ST,BOULDER,Colorado,40.002471,-105.269014,80302
1526 SUNSET BLVD,BOULDER,Colorado,40.023293,-105.276685,80304
1130 MONROE DR,BOULDER,Colorado,40.006369,-105.241715,80303
4155 47TH ST,BOULDER,Colorado,40.050272,-105.244728,80301
4870 MEREDITH WAY,BOULDER,Colorado,40.014177,-105.234181,80303
2200 CANYON BLVD,BOULDER,Colorado,40.017002,-105.26589,80302
4860 MEREDITH WAY,BOULDER,Colorado,40.013784,-105.23421,80303
2031 GRANDVIEW AVE,BOULDER,Colorado,40.012098,-105.268139,80302
201 RIDGE RD,BOULDER,Colorado,39.989883,-105.168356,80303
3100 34TH ST,BOULDER,Colorado,40.032164,-105.248702,80301
1401 MARIPOSA AVE,BOULDER,Colorado,39.998099,-105.274758,80302
2207 BASELINE RD,BOULDER,Colorado,40.000454,-105.264613,80302
8756 STREAMCREST DR,BOULDER,Colorado,40.132254,-105.286431,80302
801 GILLASPIE DR,BOULDER,Colorado,39.982355,-105.252235,80305
660 TANTRA DR,BOULDER,Colorado,39.983848,-105.238583,80305
3580 CATALPA WAY,BOULDER,Colorado,40.039718,-105.273399,80304
4570 13TH ST,BOULDER,Colorado,40.057338,-105.28053,80304
1460 QUINCE AVE,BOULDER,Colorado,40.047693,-105.279275,80304
732 ITHACA DR,BOULDER,Colorado,39.982639,-105.262494,80305
560 MOHAWK DR,BOULDER,Colorado,39.996979,-105.234153,80303
9193 LIBBY HALL,BOULDER,Colorado,40.049468,-105.201421,80301
1645 PINE ST,BOULDER,Colorado,40.021507,-105.274471,80302
1545 HIGH ST,BOULDER,Colorado,40.022714,-105.27637,80304
5420 BASELINE RD,BOULDER,Colorado,39.999748,-105.226842,80303
1130 11TH ST,BOULDER,Colorado,40.007908,-105.278339,80302
1131 UNIVERSITY AVE,BOULDER,Colorado,40.010836,-105.277918,80302
1530 EISENHOWER DR,BOULDER,Colorado,40.013171,-105.231612,80303
5501 SPINE RD,BOULDER,Colorado,40.074461,-105.202844,80301
9032 TAHOE LN,BOULDER,Colorado,40.018635,-105.14216,80301
6219 RED HILL RD,BOULDER,Colorado,40.087519,-105.30463,80302
2856 HALLETT HALL,BOULDER,Colorado,40.049468,-105.201421,80301
900 JASMINE CIR,BOULDER,Colorado,40.03803,-105.285135,80304
6113 STEARNS WEST HALL,BOULDER,Colorado,40.007341,-105.200197,80303
2900 AURORA AVE,BOULDER,Colorado,40.003581,-105.255764,80303
1218 JAY ST,BOULDER,Colorado,40.008757,-105.288168,80302
5042 LEE HILL DR,BOULDER,Colorado,40.092201,-105.347606,80302
9 W COACH RD,BOULDER,Colorado,40.06217,-105.327601,80302
5 KITTREDGE CENTRAL HALL,BOULDER,Colorado,40.049468,-105.201421,80301
1580 KALMIA AVE,BOULDER,Colorado,40.03889,-105.277638,80304
850 W MOORHEAD CIR,BOULDER,Colorado,39.981791,-105.238368,80305
1920 VISTA DR,BOULDER,Colorado,40.034468,-105.272152,80304
3200 EASTMAN AVE,BOULDER,Colorado,39.988867,-105.254159,80305
3441 CRIPPLE CREEK SQ,BOULDER,Colorado,39.966905,-105.252306,80305
2800 AURORA AVE,BOULDER,Colorado,40.003584,-105.258338,80303
1850 FOLSOM ST,BOULDER,Colorado,40.019379,-105.262531,80302
2242 WALNUT ST,BOULDER,Colorado,40.019654,-105.265302,80302
2653 VALMONT RD,BOULDER,Colorado,40.029392,-105.261298,80304
6813 IDYLWILD CT,BOULDER,Colorado,40.061315,-105.195141,80301
2455 KENWOOD DR,BOULDER,Colorado,39.988548,-105.26258,80305
2638 GRAPEWOOD LN,BOULDER,Colorado,40.03405,-105.262408,80304
7391 BROCKWAY DR,BOULDER,Colorado,39.990055,-105.180221,80303
6168 FLAGSTAFF RD,BOULDER,Colorado,39.973377,-105.339834,80302
4563 BEACHCOMBER CT,BOULDER,Colorado,40.057364,-105.205645,80301
50 BENTHAVEN PL,BOULDER,Colorado,39.973722,-105.262689,80305
1043 PLEASANT ST,BOULDER,Colorado,40.009672,-105.278914,80302
2915 BASELINE RD,BOULDER,Colorado,40.001439,-105.254596,80303
1190 35TH ST,BOULDER,Colorado,40.007099,-105.248037,80303
1715 AURORA AVE,BOULDER,Colorado,40.003918,-105.271066,80302
2641 JUNIPER AVE,BOULDER,Colorado,40.038142,-105.261754,80304
1260 KALMIA AVE,BOULDER,Colorado,40.038694,-105.281286,80304
4575 14TH ST,BOULDER,Colorado,40.057608,-105.280317,80304
1553 LODGE LN,BOULDER,Colorado,40.013583,-105.226288,80303
415 KIOWA PL,BOULDER,Colorado,39.99478,-105.240879,80303
1040 9TH ST,BOULDER,Colorado,40.006272,-105.281756,80302
1128 PENNSYLVANIA AVE,BOULDER,Colorado,40.00848,-105.277849,80302
3953 PROMONTORY CT,BOULDER,Colorado,40.047296,-105.293857,80304
2160 VASSAR DR,BOULDER,Colorado,39.984874,-105.264487,80305
8218 WILLIAMS VILLAGE EAST HALL,BOULDER,Colorado,40.049468,-105.201421,80301
805 29TH ST,BOULDER,Colorado,40.002595,-105.256486,80303
320 S 38TH ST,BOULDER,Colorado,39.988123,-105.248727,80305
2121 CANYON BLVD,BOULDER,Colorado,40.017866,-105.267543,80302
935 PLEASANT ST,BOULDER,Colorado,40.009738,-105.281306,80302
2050 ATHENS ST,BOULDER,Colorado,40.012282,-105.267797,80302
710 36TH ST,BOULDER,Colorado,40.000624,-105.247147,80303
319 29TH ST,BOULDER,Colorado,39.996858,-105.258015,80305
3301 ARAPAHOE AVE,BOULDER,Colorado,40.015289,-105.249314,80303
30 SOUTH BOULDER CIR,BOULDER,Colorado,39.986952,-105.228643,80303
4567 SUNNYSIDE PL,BOULDER,Colorado,40.050854,-105.247158,80301
214 ARROYO CHICO,BOULDER,Colorado,40.040543,-105.352418,80302
970 MIAMI WAY,BOULDER,Colorado,39.980043,-105.254725,80305
985 16TH ST,BOULDER,Colorado,40.005166,-105.27292,80302
4834 W MOORHEAD CIR,BOULDER,Colorado,39.978854,-105.23582,80305
3485 MOORHEAD AVE,BOULDER,Colorado,39.995123,-105.250697,80305
994 TIMBER LN,BOULDER,Colorado,40.04288,-105.310091,80304
4680 TALBOT DR,BOULDER,Colorado,40.001621,-105.237279,80303
933 14TH ST,BOULDER,Colorado,40.004454,-105.275368,80302
3860 CAMPO CT,BOULDER,Colorado,40.045232,-105.250517,80301
4453 HAMILTON CT,BOULDER,Colorado,39.988767,-105.24072,80305
1574 NORTH ST,BOULDER,Colorado,40.024447,-105.276191,80304
1590 YAUPON AVE,BOULDER,Colorado,40.059052,-105.277757,80304
1350 20TH ST,BOULDER,Colorado,40.012952,-105.268809,80302
2675 ILIFF ST,BOULDER,Colorado,39.971302,-105.25864,80305
2807 SUNDOWN LN,BOULDER,Colorado,40.010318,-105.2576,80303
4791 WHITE ROCK CIR,BOULDER,Colorado,40.060266,-105.214763,80301
150 S 33RD ST,BOULDER,Colorado,39.990722,-105.253684,80305
1000 GRANDVIEW AVE,BOULDER,Colorado,40.011276,-105.279781,80302
6858 SOUTH BOULDER RD,BOULDER,Colorado,39.986288,-105.192597,80303
2831 ELLISON PL,BOULDER,Colorado,40.02734,-105.277788,80304
1245 EDINBORO DR,BOULDER,Colorado,39.977027,-105.253218,80305
3363 MADISON AVE,BOULDER,Colorado,40.00635,-105.249991,80303
2224 15TH ST,BOULDER,Colorado,40.021373,-105.276653,80302
3065 30TH ST,BOULDER,Colorado,40.030162,-105.254101,80301
5448 ILLINI WAY,BOULDER,Colorado,39.987954,-105.2255,80303
3333 ONEAL PKWY,BOULDER,Colorado,40.034036,-105.249925,80301
1450 HIGH ST,BOULDER,Colorado,40.022268,-105.277537,80304
890 11TH ST,BOULDER,Colorado,40.003303,-105.27831,80302
2475 LEE HILL DR,BOULDER,Colorado,40.077568,-105.311855,80302
4593 LEE HILL DR,BOULDER,Colorado,40.090031,-105.338752,80302
1570 POPLAR AVE,BOULDER,Colorado,40.046811,-105.277504,80304
1820 PEARL ST,BOULDER,Colorado,40.019421,-105.27149,80302
2424 5TH ST,BOULDER,Colorado,40.021036,-105.289817,80304
920 CRESCENT DR,BOULDER,Colorado,40.00412,-105.230764,80303
4527 ELDORADO SPRINGS DR,BOULDER,Colorado,39.94404,-105.248445,80303
1705 FOREST AVE,BOULDER,Colorado,40.032956,-105.274859,80304
3455 STANFORD AVE,BOULDER,Colorado,39.985669,-105.253471,80305
1605 UPLAND AVE,BOULDER,Colorado,40.053245,-105.276677,80304
3250 ONEAL CIR,BOULDER,Colorado,40.034008,-105.251631,80301
2015 GRAPE AVE,BOULDER,Colorado,40.034435,-105.270128,80304
2610 IRIS AVE,BOULDER,Colorado,40.036185,-105.262745,80304
5640 ARAPAHOE AVE,BOULDER,Colorado,40.013806,-105.224148,80303
957 ROXWOOD LN,BOULDER,Colorado,40.004583,-105.225851,80303
1525 KALMIA AVE,BOULDER,Colorado,40.039289,-105.278553,80304
4785 TANTRA DR,BOULDER,Colorado,39.983036,-105.237535,80305
3284 WRIGHT AVE,BOULDER,Colorado,40.032976,-105.238376,80301
2142 CANYON BLVD,BOULDER,Colorado,40.016999,-105.266623,80302
5476 WHITE PL,BOULDER,Colorado,40.009272,-105.225944,80303
350 PONCA PL,BOULDER,Colorado,39.994322,-105.23432,80303
315 28TH ST,BOULDER,Colorado,39.996075,-105.259014,80305
6657 DREW RANCH LN,BOULDER,Colorado,40.075676,-105.199743,80301
7670 FAIRVIEW RD,BOULDER,Colorado,39.992625,-105.173714,80303
2635 MAPLETON AVE LOT 25,BOULDER,Colorado,40.026086,-105.261821,80304
8444 STONERIDGE TER,BOULDER,Colorado,40.126244,-105.29489,80302
817 19TH ST,BOULDER,Colorado,40.002296,-105.269193,80302
1297 AIKINS WAY,BOULDER,Colorado,39.975823,-105.2377,80305
2707 VALMONT RD,BOULDER,Colorado,40.030346,-105.260387,80304
1000 MAXWELL AVE,BOULDER,Colorado,40.02147,-105.283893,80304
529 UNIVERSITY AVE,BOULDER,Colorado,40.010592,-105.288514,80302
4855 EDISON AVE,BOULDER,Colorado,40.031267,-105.240745,80301
1975 30TH ST,BOULDER,Colorado,40.021084,-105.254099,80301
4935 QUALLA DR,BOULDER,Colorado,39.99164,-105.23283,80303
3555 16TH ST,BOULDER,Colorado,40.038525,-105.277654,80304
956 TERRACE CIR N,BOULDER,Colorado,40.067207,-105.284495,80302
1043 KALMIA AVE,BOULDER,Colorado,40.039871,-105.28373,80304
6255 HABITAT DR,BOULDER,Colorado,40.060986,-105.208213,80301
800 28TH ST,BOULDER,Colorado,40.002598,-105.257548,80303
2985 COLLEGE AVE,BOULDER,Colorado,40.007206,-105.254489,80303
1135 11TH ST,BOULDER,Colorado,40.008198,-105.279167,80302
1055 ADAMS CIR,BOULDER,Colorado,40.005051,-105.256579,80303
4766 FRANKLIN DR,BOULDER,Colorado,40.032792,-105.243017,80301
2790 REGIS DR,BOULDER,Colorado,39.985698,-105.258244,80305
5546 SPINE RD,BOULDER,Colorado,40.07499,-105.201748,80301
4977 MOORHEAD AVE,BOULDER,Colorado,39.987056,-105.237153,80305
1707 22ND ST,BOULDER,Colorado,40.016555,-105.266621,80302
642 S 40TH ST,BOULDER,Colorado,39.984017,-105.24705,80305
1932 CANYON BLVD,BOULDER,Colorado,40.016992,-105.269346,80302
8494 STONERIDGE TER,BOULDER,Colorado,40.128037,-105.294754,80302
3580 SILVER PLUME CT,BOULDER,Colorado,39.967497,-105.25091,80305
5516 SPINE RD,BOULDER,Colorado,40.074557,-105.201041,80301
2505 YARROW CT,BOULDER,Colorado,39.977128,-105.26114,80305
5000 BUTTE ST LOT 258,BOULDER,Colorado,40.033979,-105.236179,80301
4638 JAMESTON ST,BOULDER,Colorado,40.059138,-105.163665,80301
782 COTTAGE LN,BOULDER,Colorado,40.051823,-105.285646,80304
2853 NEBRINA PL,BOULDER,Colorado,40.04344,-105.256568,80301
930 15TH ST,BOULDER,Colorado,40.004322,-105.27341,80302
3328 WRIGHT CIR,BOULDER,Colorado,40.033385,-105.238875,80301
838 NORTH ST,BOULDER,Colorado,40.024434,-105.286039,80304
5119 WILLIAMS FORK TRL,BOULDER,Colorado,40.066828,-105.201942,80301
5124 WILLIAMS FORK TRL,BOULDER,Colorado,40.066385,-105.201802,80301
3525 SILVER PLUME CT,BOULDER,Colorado,39.967979,-105.251339,80305
1010 12TH ST,BOULDER,Colorado,40.005782,-105.277103,80302
1850 22ND ST,BOULDER,Colorado,40.019033,-105.265721,80302
4711 W MOORHEAD CIR,BOULDER,Colorado,39.979809,-105.237809,80305
3355 EASTMAN AVE,BOULDER,Colorado,39.989322,-105.253605,80305
2121 MESA DR RM 337A,BOULDER,Colorado,40.025241,-105.269507,80304
1581 TIMBER LN,BOULDER,Colorado,40.043922,-105.316525,80304
6522 RED HILL RD,BOULDER,Colorado,40.093253,-105.303323,80302
400 MAPLETON AVE,BOULDER,Colorado,40.02021,-105.291296,80304
7163 OLD POST RD,BOULDER,Colorado,40.058812,-105.186264,80301
4245 REDWOOD PL,BOULDER,Colorado,40.04909,-105.255503,80301
4225 AURORA AVE,BOULDER,Colorado,40.004661,-105.24097,80303
1128 LINCOLN PL,BOULDER,Colorado,40.008086,-105.280682,80302
4131 WESTCLIFFE CT,BOULDER,Colorado,40.049773,-105.248125,80301
907 18TH ST,BOULDER,Colorado,40.004172,-105.270206,80302
3350 CAYMAN PL,BOULDER,Colorado,40.050382,-105.251825,80301
5985 BRANDYWINE CT,BOULDER,Colorado,40.05811,-105.214276,80301
2850 29TH ST,BOULDER,Colorado,40.028384,-105.2554,80301
1521 11TH ST,BOULDER,Colorado,40.012036,-105.279527,80302
4618 16TH ST,BOULDER,Colorado,40.058615,-105.276892,80304
700 LOCUST AVE,BOULDER,Colorado,40.053589,-105.28825,80304
6561 WILLIAMS VILLAGE EAST HALL,BOULDER,Colorado,40.049468,-105.201421,80301
2606 JUNIPER AVE,BOULDER,Colorado,40.036772,-105.262934,80304
935 11TH ST,BOULDER,Colorado,40.004449,-105.279046,80302
190 S 33RD ST,BOULDER,Colorado,39.989968,-105.253686,80305
3220 MADISON AVE,BOULDER,Colorado,40.00571,-105.250916,80303
1037 E MOORHEAD CIR,BOULDER,Colorado,39.980068,-105.236101,80305
2424 6TH ST,BOULDER,Colorado,40.021016,-105.28828,80304
3821 APACHE CT W,BOULDER,Colorado,39.993627,-105.245754,80303
4507 S HAMPTON CIR,BOULDER,Colorado,40.046229,-105.245592,80301
1060 KENT ST,BOULDER,Colorado,40.006391,-105.253951,80303
4322 SUNSHINE CANYON DR,BOULDER,Colorado,40.052739,-105.33332,80302
875 39TH ST,BOULDER,Colorado,40.003359,-105.244929,80303
1116 RIDGLEA WAY,BOULDER,Colorado,40.006602,-105.200186,80303
1090 30TH ST,BOULDER,Colorado,40.005712,-105.252766,80303
4998 MOORHEAD AVE,BOULDER,Colorado,39.986216,-105.238547,80305
1818 19TH ST,BOULDER,Colorado,40.017715,-105.270104,80302
3365 CHISHOLM TRL,BOULDER,Colorado,40.035761,-105.252509,80301
3850 PASEO DEL PRADO,BOULDER,Colorado,40.044515,-105.256264,80301
2600 9TH ST,BOULDER,Colorado,40.024773,-105.285013,80304
4803 BRANDON CREEK DR,BOULDER,Colorado,40.062628,-105.195849,80301
5505 VALMONT RD LOT 268,BOULDER,Colorado,40.034299,-105.223092,80301
4500 19TH ST LOT 322,BOULDER,Colorado,40.055675,-105.275504,80304
5000 BUTTE ST LOT 287,BOULDER,Colorado,40.033979,-105.236179,80301
921 TELLER CIR,BOULDER,Colorado,40.004955,-105.234519,80303
1440 ITHACA DR,BOULDER,Colorado,39.974338,-105.256297,80305
1592 KILKENNY ST,BOULDER,Colorado,40.014299,-105.136093,80303
4068 DAWN CT,BOULDER,Colorado,40.048477,-105.259596,80304
3064 ARNETT ST,BOULDER,Colorado,40.030454,-105.261826,80304
2121 MESA DR,BOULDER,Colorado,40.025241,-105.269507,80304
5588 PENNSYLVANIA AVE,BOULDER,Colorado,40.005837,-105.22359,80303
5860 S ORCHARD CREEK CIR,BOULDER,Colorado,40.054733,-105.217656,80301
3255 6TH ST,BOULDER,Colorado,40.033703,-105.289457,80304
411 VALLEY VIEW DR,BOULDER,Colorado,40.024799,-105.29119,80304
993 E MOORHEAD CIR,BOULDER,Colorado,39.980661,-105.236529,80305
3790 SILVER PLUME LN,BOULDER,Colorado,39.968013,-105.248912,80305
3115 REPPLIER ST,BOULDER,Colorado,40.031654,-105.271036,80304
1955 30TH ST,BOULDER,Colorado,40.020773,-105.254133,80301
760 S 45TH ST,BOULDER,Colorado,39.982633,-105.24238,80305
1645 7TH ST,BOULDER,Colorado,40.012457,-105.285736,80302
5533 FLAGSTAFF RD,BOULDER,Colorado,39.977312,-105.325849,80302
680 S LASHLEY LN,BOULDER,Colorado,39.984442,-105.248314,80305
4500 19TH ST LOT 619,BOULDER,Colorado,40.055675,-105.275504,80304
504 VALLEY VIEW DR,BOULDER,Colorado,40.024429,-105.289826,80304
381 ARROYO CHICO,BOULDER,Colorado,40.043223,-105.353854,80302
990 MORGAN DR,BOULDER,Colorado,40.006203,-105.238443,80303
2131 ARAPAHOE AVE,BOULDER,Colorado,40.014864,-105.267135,80302
815 NORTH ST,BOULDER,Colorado,40.024864,-105.28649,80304
4797 DORCHESTER CIR,BOULDER,Colorado,40.061986,-105.172438,80301
930 W MOORHEAD CIR,BOULDER,Colorado,39.981213,-105.23898,80305
5704 RIM ROCK CT,BOULDER,Colorado,40.076132,-105.196025,80301
825 MCINTIRE ST,BOULDER,Colorado,40.002779,-105.234251,80303
3016 FOLSOM ST,BOULDER,Colorado,40.030303,-105.262857,80304
3105 ARNETT ST,BOULDER,Colorado,40.031296,-105.262366,80304
2119 GOSS CIR W,BOULDER,Colorado,40.016554,-105.26731,80302
3155 ARNETT ST,BOULDER,Colorado,40.03213,-105.262374,80304
3756 26TH ST,BOULDER,Colorado,40.042667,-105.262823,80304
5753 N ORCHARD CREEK CIR,BOULDER,Colorado,40.057499,-105.22055,80301
3003 VALMONT RD,BOULDER,Colorado,40.031073,-105.252567,80301
5320 KEWANEE DR,BOULDER,Colorado,39.991558,-105.228259,80303
3030 FOLSOM ST,BOULDER,Colorado,40.030493,-105.262662,80304
2590 YARROW CT,BOULDER,Colorado,39.976855,-105.260381,80305
1860 BALSAM AVE,BOULDER,Colorado,40.026511,-105.273083,80304
3107 KINGS RIDGE BLVD,BOULDER,Colorado,40.031201,-105.239761,80301
746 11TH ST,BOULDER,Colorado,40.000882,-105.278283,80302
737 19TH ST,BOULDER,Colorado,40.000798,-105.269116,80302
4871 ELDORADO SPRINGS DR,BOULDER,Colorado,39.94956,-105.239914,80303
4817 ELDORADO SPRINGS DR,BOULDER,Colorado,39.949521,-105.24097,80303
1408 SUNSHINE CANYON DR,BOULDER,Colorado,40.026322,-105.311123,80302
4500 19TH ST LOT 342,BOULDER,Colorado,40.055675,-105.275504,80304
621 TANTRA DR,BOULDER,Colorado,39.984216,-105.239891,80305
3003 VALMONT RD LOT 74,BOULDER,Colorado,40.031073,-105.252567,80301
1502 UPLAND AVE,BOULDER,Colorado,40.052527,-105.278132,80304
7701 WILLIAMS VILLAGE NORTH HALL,BOULDER,Colorado,40.049468,-105.201421,80301
695 MANHATTAN DR,BOULDER,Colorado,39.999662,-105.231091,80303
285 BROKEN FENCE RD,BOULDER,Colorado,40.016351,-105.351828,80302
545 MAPLETON AVE,BOULDER,Colorado,40.020915,-105.289044,80304
4454 WELLINGTON RD,BOULDER,Colorado,40.055579,-105.212567,80301
182 RIDGE RD,BOULDER,Colorado,39.988262,-105.169507,80303
1255 19TH ST,BOULDER,Colorado,40.012289,-105.270397,80302
3069 BROADWAY,BOULDER,Colorado,40.030459,-105.282374,80304
4500 19TH ST LOT 299,BOULDER,Colorado,40.055675,-105.275504,80304
2955 GLENWOOD DR,BOULDER,Colorado,40.033492,-105.255123,80301
2340 SOUTH ST,BOULDER,Colorado,40.019205,-105.263931,80302
4500 19TH ST LOT 571,BOULDER,Colorado,40.055675,-105.275504,80304
3060 PENNSYLVANIA AVE,BOULDER,Colorado,40.007985,-105.254039,80303
2355 GROVE ST,BOULDER,Colorado,40.015703,-105.263785,80302
3455 TABLE MESA DR,BOULDER,Colorado,39.985127,-105.254494,80305
1001 ARAPAHOE AVE.,BOULDER,Colorado,40.014017,-105.281826,80302
4870 TWIN LAKES RD,BOULDER,Colorado,40.063336,-105.195468,80301
3730 26TH ST,BOULDER,Colorado,40.042302,-105.262272,80304
1373 CAVAN ST,BOULDER,Colorado,40.010293,-105.136815,80303
1133 PORTLAND PL,BOULDER,Colorado,40.023948,-105.282944,80304
7446 SPRING DR,BOULDER,Colorado,39.974784,-105.178739,80303
3110 22ND ST,BOULDER,Colorado,40.03151,-105.267651,80304
2780 TAFT DR,BOULDER,Colorado,40.010335,-105.259267,80302
3629 21ST ST,BOULDER,Colorado,40.041059,-105.271063,80304
1485 UPLAND AVE,BOULDER,Colorado,40.053375,-105.278934,80304
13 HALLETT HALL,BOULDER,Colorado,40.049468,-105.201421,80301
2829 14TH ST,BOULDER,Colorado,40.027257,-105.278834,80304
1470 OAK PL,BOULDER,Colorado,40.044195,-105.27905,80304
30 PIMA CT,BOULDER,Colorado,39.987785,-105.23462,80303
1638 18TH ST,BOULDER,Colorado,40.016081,-105.271153,80302
890 ORMAN DR,BOULDER,Colorado,40.004839,-105.238488,80303
4786 ESSEX CIR,BOULDER,Colorado,40.061503,-105.170795,80301
3440 22ND ST,BOULDER,Colorado,40.037045,-105.268177,80304
4428 GREENBRIAR BLVD,BOULDER,Colorado,39.970756,-105.243029,80305
7348 CLUBHOUSE RD,BOULDER,Colorado,40.065182,-105.182027,80301
4266 GRAHAM CT,BOULDER,Colorado,39.989055,-105.243392,80305
3055 6TH ST,BOULDER,Colorado,40.030212,-105.28947,80304
2860 4TH ST,BOULDER,Colorado,40.027801,-105.291204,80304
18 HALLETT HALL,BOULDER,Colorado,40.049468,-105.201421,80301
5331 HOLMES PL,BOULDER,Colorado,40.010683,-105.22782,80303
2300 ARAPAHOE AVE,BOULDER,Colorado,40.014464,-105.264533,80302
7654 WILLIAMS VILLAGE NORTH HALL,BOULDER,Colorado,40.049468,-105.201421,80301
1225 COLLEGE AVE,BOULDER,Colorado,40.007496,-105.276629,80302
960 UNIVERSITY AVE,BOULDER,Colorado,40.010179,-105.280453,80302
2805 ELM AVE,BOULDER,Colorado,39.997728,-105.258388,80305
3765 CANFIELD ST,BOULDER,Colorado,40.043015,-105.24133,80301
2925 19TH ST,BOULDER,Colorado,40.028759,-105.272976,80304
7743 ARLINGTON DR,BOULDER,Colorado,40.007118,-105.173169,80303
4940 THUNDERBIRD CIR,BOULDER,Colorado,39.988554,-105.232746,80303
6215 OLDE STAGE RD,BOULDER,Colorado,40.087533,-105.302648,80302
520 MOHAWK DR,BOULDER,Colorado,39.996438,-105.236295,80303
4760 GIBBS AVE,BOULDER,Colorado,40.032647,-105.242205,80301
2787 NORTHBROOK PL,BOULDER,Colorado,40.04537,-105.258938,80304
18 ARNETT HALL,BOULDER,Colorado,40.049468,-105.201421,80301
253 N 76TH ST,BOULDER,Colorado,39.990826,-105.175877,80303
4927 THUNDERBIRD CIR,BOULDER,Colorado,39.989278,-105.232604,80303
5522 MESA TOP CT,BOULDER,Colorado,40.074803,-105.197293,80301
897 ITHACA DR,BOULDER,Colorado,39.980945,-105.257576,80305
147 CHEROKEE WAY,BOULDER,Colorado,39.989566,-105.231199,80303
2043 ARAPAHOE AVE,BOULDER,Colorado,40.01487,-105.268106,80302
1814 SPRUCE ST,BOULDER,Colorado,40.020363,-105.271828,80302
4697 18TH ST,BOULDER,Colorado,40.060028,-105.275322,80304
3315 WRIGHT CIR,BOULDER,Colorado,40.033074,-105.239339,80301
160 SEMINOLE DR,BOULDER,Colorado,39.989466,-105.229454,80303
4125 47TH ST,BOULDER,Colorado,40.049906,-105.244492,80301
301 19TH ST,BOULDER,Colorado,39.996334,-105.269127,80302
3300 BRIDGER TRL,BOULDER,Colorado,40.035831,-105.251031,80301
3100 PEARL PKWY,BOULDER,Colorado,40.023435,-105.251799,80301
730 CONCORD AVE,BOULDER,Colorado,40.022517,-105.286087,80304
3953 FULLER CT,BOULDER,Colorado,39.990901,-105.244419,80305
4520 BROADWAY,BOULDER,Colorado,40.056466,-105.281959,80304
1133 PLEASANT ST,BOULDER,Colorado,40.009747,-105.278284,80302
1495 FINDLAY WAY,BOULDER,Colorado,39.973479,-105.254929,80305
2034 PEARL ST,BOULDER,Colorado,40.019992,-105.26861,80302
4664 S HAMPTON CIR,BOULDER,Colorado,40.046855,-105.244604,80301
4065 15TH ST,BOULDER,Colorado,40.048504,-105.279293,80304
4191 PIEDRA PL,BOULDER,Colorado,40.046789,-105.256429,80301
980 MORGAN DR,BOULDER,Colorado,40.006056,-105.238324,80303
4910 MEREDITH WAY,BOULDER,Colorado,40.014064,-105.233459,80303
6582 FINLEY PL,BOULDER,Colorado,40.070793,-105.19987,80301
3090 17TH ST,BOULDER,Colorado,40.0317,-105.274838,80304
5378 GUNBARREL CENTER CT,BOULDER,Colorado,40.071911,-105.199242,80026
2611 LLOYD CIR,BOULDER,Colorado,40.038871,-105.262936,80304
999 8TH ST,BOULDER,Colorado,40.005326,-105.284661,80302
955 5TH ST,BOULDER,Colorado,40.004969,-105.290197,80302
6623 BEAN MOUNTAIN LN,BOULDER,Colorado,40.076163,-105.201126,80301
184 VAQUERO DR,BOULDER,Colorado,39.983227,-105.178879,80303
460 S 42ND ST,BOULDER,Colorado,39.986221,-105.245191,80305
1775 LOMBARDY DR,BOULDER,Colorado,40.042138,-105.2747,80304
2220 21ST ST,BOULDER,Colorado,40.022782,-105.268805,80302
1057 POPLAR AVE,BOULDER,Colorado,40.047123,-105.283329,80304
2655 JUNIPER AVE,BOULDER,Colorado,40.037549,-105.262154,80304
3003 VALMONT RD LOT 204,BOULDER,Colorado,40.031073,-105.252567,80301
903 E MOORHEAD CIR,BOULDER,Colorado,39.981335,-105.235958,80305
2995 EUCLID AVE,BOULDER,Colorado,40.005325,-105.253722,80303
1853 26TH ST,BOULDER,Colorado,40.018757,-105.261153,80302
4733 ESSEX CT,BOULDER,Colorado,40.060651,-105.170563,80301
4580 13TH ST,BOULDER,Colorado,40.057606,-105.28078,80304
40 SOUTH BOULDER CIR,BOULDER,Colorado,39.987237,-105.228532,80303
4958 BEAR CREEK APTS B,BOULDER,Colorado,40.049468,-105.201421,80301
530 MOHAWK DR,BOULDER,Colorado,39.996645,-105.236279,80303
1613 7TH ST,BOULDER,Colorado,40.011831,-105.285735,80302
1222 OAKLEAF CIR,BOULDER,Colorado,40.046087,-105.281761,80304
182 ANEMONE DR,BOULDER,Colorado,40.027721,-105.320588,80302
823 MAXWELL AVE,BOULDER,Colorado,40.022083,-105.285676,80304
2900 E COLLEGE AVE,BOULDER,Colorado,40.006881,-105.256486,80303
3755 MOORHEAD AVE,BOULDER,Colorado,39.992759,-105.246601,80305
5116 WILLIAMS FORK TRL,BOULDER,Colorado,40.065882,-105.199388,80301
5610 ARAPAHOE AVE,BOULDER,Colorado,40.013924,-105.224203,80303
3320 BERKLEY CT,BOULDER,Colorado,39.994921,-105.253087,80305
4259 PRADO DR,BOULDER,Colorado,39.943251,-105.254361,80303
2960 VALMONT RD,BOULDER,Colorado,40.02882,-105.25459,80301
3113 BELL DR,BOULDER,Colorado,40.03126,-105.243236,80301
2024 HERMOSA DR,BOULDER,Colorado,40.034914,-105.269128,80304
773 SKY TRAIL RD,BOULDER,Colorado,40.075956,-105.347797,80302
1633 4TH ST,BOULDER,Colorado,40.012333,-105.291819,80302
3367 SENTINEL DR,BOULDER,Colorado,40.036146,-105.240952,80301
4869 BROADWAY,BOULDER,Colorado,40.062616,-105.282775,80302
410 S 40TH ST,BOULDER,Colorado,39.987146,-105.247037,80305
527 MAXWELL AVE,BOULDER,Colorado,40.022051,-105.289343,80304
657 PARAGON DR,BOULDER,Colorado,39.981802,-105.176884,80303
280 BOULDER VIEW RD,BOULDER,Colorado,40.017593,-105.394271,80302
5826 WOODBOURNE HOLLOW RD,BOULDER,Colorado,40.043525,-105.218278,80301
998 CHERRYVALE RD,BOULDER,Colorado,40.004844,-105.211459,80303
1298 WILDWOOD RD,BOULDER,Colorado,39.975947,-105.266492,80305
503 HARVARD LN,BOULDER,Colorado,39.986399,-105.251257,80305
3122 9TH ST,BOULDER,Colorado,40.031558,-105.285228,80304
3050 MADISON AVE,BOULDER,Colorado,40.005711,-105.252218,80303
1785 YARMOUTH AVE,BOULDER,Colorado,40.058406,-105.275654,80304
4327 BEAR CREEK APTS A,BOULDER,Colorado,39.77443,-105.274024,80403
1111 MAXWELL AVE,BOULDER,Colorado,40.02236,-105.282989,80304
3990 CARLOCK DR,BOULDER,Colorado,39.980333,-105.248401,80305
4555 OTTAWA PL,BOULDER,Colorado,39.989851,-105.237203,80303
1222 WILDWOOD CIR,BOULDER,Colorado,39.976816,-105.265986,80305
4669 APPLE WAY,BOULDER,Colorado,40.052904,-105.245415,80301
3161 MADISON AVE,BOULDER,Colorado,40.006473,-105.251827,80303
4031 STEARNS WEST HALL,BOULDER,Colorado,40.007451,-105.200679,80303
3093 REDSTONE LN,BOULDER,Colorado,39.966872,-105.254845,80305
2058 BALSAM DR,BOULDER,Colorado,40.026513,-105.268667,80304
1230 JUDSON DR,BOULDER,Colorado,39.977219,-105.257185,80305
6710 ARAPAHOE,BOULDER,Colorado,40.013787,-105.19563,80303
2685 JUNIPER AVE,BOULDER,Colorado,40.038129,-105.261089,80304
1805 SPRUCE ST,BOULDER,Colorado,40.020891,-105.272332,80302
4407 S HAMPTON CIR,BOULDER,Colorado,40.046139,-105.246055,80301
1920 CANYON BLVD,BOULDER,Colorado,40.016992,-105.269809,80302
990 LINCOLN PL,BOULDER,Colorado,40.005259,-105.280822,80302
815 32ND ST,BOULDER,Colorado,40.002142,-105.251477,80303
2025 18TH ST,BOULDER,Colorado,40.020042,-105.272665,80302
3171 VALMONT RD,BOULDER,Colorado,40.029646,-105.251062,80301
4406 CLIPPER CT,BOULDER,Colorado,40.054702,-105.200615,80301
1431 18TH ST,BOULDER,Colorado,40.01425,-105.271945,80302
3075 LITTLELEAF LN,BOULDER,Colorado,40.030554,-105.261586,80304
6836 OLDE STAGE RD,BOULDER,Colorado,40.098669,-105.301762,80302
4584 SPRUCEDALE PL,BOULDER,Colorado,40.049375,-105.24686,80301
3265 FOUNDRY PL,BOULDER,Colorado,40.026806,-105.251376,80301
4161 WESTCLIFFE CT,BOULDER,Colorado,40.05007,-105.248113,80301
819 14TH ST,BOULDER,Colorado,40.002463,-105.27535,80302
3900 19TH ST,BOULDER,Colorado,40.046329,-105.272385,80304
1940 WALNUT ST,BOULDER,Colorado,40.01808,-105.269318,80302
1528 HARRISON AVE,BOULDER,Colorado,40.013067,-105.238272,80303
1675 DOGWOOD LN,BOULDER,Colorado,40.04068,-105.276356,80304
165 CONTINENTAL VIEW DR,BOULDER,Colorado,39.988448,-105.164604,80303
7229 FOUR RIVERS RD,BOULDER,Colorado,40.068966,-105.184451,80301
1730 MAPLETON AVE,BOULDER,Colorado,40.02215,-105.273643,80304
4501 DRIFTWOOD PL,BOULDER,Colorado,40.055865,-105.20618,80301
4579 BEACHCOMBER CT,BOULDER,Colorado,40.05713,-105.206246,80301
2695 STANFORD AVE,BOULDER,Colorado,39.987356,-105.258946,80305
60 N CEDAR BROOK RD,BOULDER,Colorado,40.049896,-105.303754,80304
1030 ADAMS CIR,BOULDER,Colorado,40.006338,-105.254935,80303
4734 MCKINLEY DR,BOULDER,Colorado,40.010358,-105.236359,80303
7734 ANDREWS WAY,BOULDER,Colorado,40.003825,-105.17311,80303
4204 TAMARACK CT,BOULDER,Colorado,40.051081,-105.264325,80304
2605 REGIS DR,BOULDER,Colorado,39.986107,-105.259322,80305
5000 BUTTE ST LOT 159,BOULDER,Colorado,40.033979,-105.236179,80301
3975 ARBOL CT,BOULDER,Colorado,40.047013,-105.253675,80301
1409 QUINCE AVE,BOULDER,Colorado,40.048353,-105.280113,80304
4620 15TH ST,BOULDER,Colorado,40.058716,-105.278343,80304
1710 CEDAR AVE,BOULDER,Colorado,40.027765,-105.274386,80304
2895 COLLEGE AVE,BOULDER,Colorado,40.007589,-105.257043,80303
9038 CHEYENNE ARAPAHO HALL,BOULDER,Colorado,40.049468,-105.201421,80301
7418 SINGING HILLS DR,BOULDER,Colorado,40.068882,-105.180123,80301
3025 BROADWAY,BOULDER,Colorado,40.03021,-105.282499,80304
536 AZTEC DR,BOULDER,Colorado,39.997364,-105.227682,80303
2445 JUNCTION PL,BOULDER,Colorado,40.025871,-105.251194,80301
830 GRANT PL,BOULDER,Colorado,40.002434,-105.282818,80302
4468 CLAY ST,BOULDER,Colorado,40.055872,-105.221711,80301
1561 S FOOTHILLS HWY LOT F9,BOULDER,Colorado,39.956445,-105.231073,80305
3280 47TH ST,BOULDER,Colorado,40.034255,-105.242813,80301
5935 BRANDYWINE CT,BOULDER,Colorado,40.058108,-105.215143,80301
3105 GALILEO LN,BOULDER,Colorado,40.031129,-105.240199,80301
619 QUINCE CIR,BOULDER,Colorado,40.047501,-105.28915,80304
578 ARKANSAS MOUNTAIN RD,BOULDER,Colorado,40.029049,-105.377999,80302
6544 WILLIAMS VILLAGE EAST HALL,BOULDER,Colorado,40.049468,-105.201421,80301
4485 HAMILTON CT,BOULDER,Colorado,39.988286,-105.24073,80305
1951 ALPINE AVE,BOULDER,Colorado,40.025708,-105.271303,80304
5875 OLDE STAGE RD,BOULDER,Colorado,40.081176,-105.302251,80302
23 ANDREWS HALL,BOULDER,Colorado,40.082921,-105.343523,80302
4500 19TH ST LOT 69,BOULDER,Colorado,40.055675,-105.275504,80304
3224 PALO PKWY,BOULDER,Colorado,40.043572,-105.250813,80301
3295 34TH ST,BOULDER,Colorado,40.034422,-105.24927,80301
722 4 MILE CANYON DR,BOULDER,Colorado,39.616476,-104.044155,80105
5047 GALLATIN PL,BOULDER,Colorado,40.00956,-105.231797,80303
525 HARTFORD DR,BOULDER,Colorado,39.984649,-105.256804,80305
5553 HIGH COUNTRY CT,BOULDER,Colorado,40.074434,-105.195637,80301
37292 BOULDER CANYON DR,BOULDER,Colorado,40.005641,-105.342139,80302
4385 CHIPPEWA DR,BOULDER,Colorado,39.997014,-105.238906,80303
2690 UNIVERSITY HEIGHTS AVE,BOULDER,Colorado,40.009335,-105.26043,80302
61 QUALLA CT,BOULDER,Colorado,39.988898,-105.234829,80303
3260 47TH ST,BOULDER,Colorado,40.034254,-105.243778,80301
3323 CRIPPLE CREEK TRL,BOULDER,Colorado,39.967033,-105.253134,80305
2227 CANYON BLVD,BOULDER,Colorado,40.017995,-105.265598,80302
7120 CEDARWOOD CIR,BOULDER,Colorado,40.066138,-105.186502,80301
2985 AURORA AVE,BOULDER,Colorado,40.003879,-105.25409,80303
3101 IRON FORGE PL,BOULDER,Colorado,40.027332,-105.252527,80301
4585 SUNNYSIDE PL,BOULDER,Colorado,40.050841,-105.246654,80301
195 BELLEVUE DR,BOULDER,Colorado,39.99491,-105.27655,80302
3100 KITTRELL CT,BOULDER,Colorado,39.969396,-105.252439,80305
1913 MAPLETON AVE,BOULDER,Colorado,40.023176,-105.271581,80304
2536 10TH ST,BOULDER,Colorado,40.024194,-105.283421,80304
916 11TH ST,BOULDER,Colorado,40.004107,-105.278318,80302
5505 VALMONT RD,BOULDER,Colorado,40.034299,-105.223092,80301
445 ALPINE AVE,BOULDER,Colorado,40.025698,-105.290522,80304
5020 BUCKINGHAM RD,BOULDER,Colorado,40.066127,-105.179942,80301
5340 GUNBARREL CENTER CT,BOULDER,Colorado,40.071572,-105.19878,80026
4500 19TH ST LOT 40,BOULDER,Colorado,40.055675,-105.275504,80304
855 INCA PKWY,BOULDER,Colorado,40.002601,-105.23966,80303
700 MOHAWK DR,BOULDER,Colorado,40.000679,-105.236011,80303
2425 BLUFF ST,BOULDER,Colorado,40.025657,-105.265225,80304
2810 MARINE ST,BOULDER,Colorado,40.013434,-105.257068,80303
506 PINE ST,BOULDER,Colorado,40.018183,-105.289796,80302
1821 MARINE ST,BOULDER,Colorado,40.01379,-105.270988,80302
4647 DEVONSHIRE ST,BOULDER,Colorado,40.058868,-105.173219,80301
1012 UNIVERSITY AVE,BOULDER,Colorado,40.010182,-105.279516,80302
755 7TH ST,BOULDER,Colorado,40.001095,-105.287018,80302
5563 SPINE RD,BOULDER,Colorado,40.075118,-105.202715,80301
4224 REDWOOD PL,BOULDER,Colorado,40.04866,-105.256025,80301
585 DEER TRAIL RD,BOULDER,Colorado,40.083361,-105.341432,80302
4500 BASELINE RD,BOULDER,Colorado,40.000117,-105.039281,80020
3091 29TH ST,BOULDER,Colorado,40.030843,-105.256483,80301
1166 CHERRYVALE RD,BOULDER,Colorado,40.007862,-105.211212,80303
1019 14TH ST,BOULDER,Colorado,40.005843,-105.275374,80302
405 VALLEY VIEW DR,BOULDER,Colorado,40.024798,-105.291329,80304
798 FOX HILL CT,BOULDER,Colorado,40.00198,-105.193741,80303
1510 EISENHOWER DR,BOULDER,Colorado,40.013199,-105.230561,80303
3080 PEARL PKWY,BOULDER,Colorado,40.022671,-105.252455,80301
1895 ALPINE AVE,BOULDER,Colorado,40.025941,-105.27343,80304
1245 HARTFORD DR,BOULDER,Colorado,39.977113,-105.255906,80305
840 37TH ST,BOULDER,Colorado,40.002763,-105.246238,80303
735 17TH ST,BOULDER,Colorado,40.000858,-105.271529,80302
4040 EVANS DR,BOULDER,Colorado,40.001277,-105.242843,80303
6930 HUNTER PL,BOULDER,Colorado,40.070867,-105.191998,80301
225 DEER TRAIL CIR,BOULDER,Colorado,40.080124,-105.359299,80302
2978 SHADY HOLLOW W,BOULDER,Colorado,40.028738,-105.260344,80304
109 HURON CT,BOULDER,Colorado,39.987985,-105.223139,80303
87 GENESEE CT,BOULDER,Colorado,39.987599,-105.224525,80303
2950 18TH ST,BOULDER,Colorado,40.029246,-105.273888,80304
3705 CANFIELD ST,BOULDER,Colorado,40.04087,-105.243353,80301
1812 CANYON BLVD,BOULDER,Colorado,40.016953,-105.271101,80302
4830 MEREDITH WAY,BOULDER,Colorado,40.013415,-105.233473,80303
3355 BRIDGER TRL,BOULDER,Colorado,40.036169,-105.250992,80301
2380 HILLSDALE WAY,BOULDER,Colorado,39.981104,-105.265233,80305
3750 EMERSON AVE,BOULDER,Colorado,39.97485,-105.250306,80305
36 CANYON VIEW RD,BOULDER,Colorado,40.009053,-105.351447,80302
770 10TH ST,BOULDER,Colorado,40.001386,-105.279515,80302
1240 NORWOOD AVE,BOULDER,Colorado,40.043525,-105.281793,80304
4683 14TH ST,BOULDER,Colorado,40.059871,-105.280022,80304
2126 COLUMBINE AVE,BOULDER,Colorado,39.998881,-105.265768,80302
2968 S LAKERIDGE TRL,BOULDER,Colorado,40.136201,-105.284935,80302
320 ERIE DR,BOULDER,Colorado,39.995119,-105.244729,80303
1921 CANYON BLVD,BOULDER,Colorado,40.017641,-105.269788,80302
488 S LASHLEY LN,BOULDER,Colorado,39.987704,-105.251758,80305
2501 BLUFF ST,BOULDER,Colorado,40.025639,-105.264272,80304
4761 TANTRA DR,BOULDER,Colorado,39.983347,-105.237284,80305
1700 BALSAM AVE,BOULDER,Colorado,40.026509,-105.274604,80304
1730 BALSAM AVE,BOULDER,Colorado,40.026509,-105.27432,80304
820 28TH ST,BOULDER,Colorado,40.001678,-105.25832,80303
701 9TH ST,BOULDER,Colorado,40.000252,-105.282261,80302
1390 ITHACA DR,BOULDER,Colorado,39.975294,-105.256288,80305
9147 SUNSHINE CANYON DR,BOULDER,Colorado,40.066532,-105.402349,80302
3821 CLOVERLEAF DR,BOULDER,Colorado,40.042484,-105.27442,80304
3735 CANFIELD ST,BOULDER,Colorado,40.042097,-105.242705,80301
247 FOX DR,BOULDER,Colorado,39.99337,-105.244515,80303
3106 BELL DR,BOULDER,Colorado,40.031393,-105.242385,80301
607 MAPLETON AVE,BOULDER,Colorado,40.020784,-105.288281,80304
2804 3RD ST,BOULDER,Colorado,40.026872,-105.292361,80304
4256 REDWOOD CT,BOULDER,Colorado,40.049425,-105.255242,80301
410 22ND ST,BOULDER,Colorado,39.997635,-105.264677,80302
33 SOUTH BOULDER CIR,BOULDER,Colorado,39.986624,-105.229782,80303
1057 13TH ST,BOULDER,Colorado,40.006518,-105.276609,80302
411 HARVARD LN,BOULDER,Colorado,39.987927,-105.254183,80305
2236 PINE ST,BOULDER,Colorado,40.022646,-105.266406,80302
9184 CHEYENNE ARAPAHO HALL,BOULDER,Colorado,40.049468,-105.201421,80301
7050 WILLIAMS VILLAGE EAST HALL,BOULDER,Colorado,40.049468,-105.201421,80301
2224 MEAD DR,BOULDER,Colorado,40.021054,-105.140976,80301
660 MANHATTAN DR,BOULDER,Colorado,39.9991,-105.229065,80303
1311 SONGBIRD CT,BOULDER,Colorado,40.009782,-105.207637,80303
4975 TWIN LAKES RD,BOULDER,Colorado,40.064908,-105.19737,80301
540 HARTFORD DR,BOULDER,Colorado,39.984185,-105.257028,80305
3130 AURORA AVE,BOULDER,Colorado,40.00358,-105.252179,80303
2265 VASSAR DR,BOULDER,Colorado,39.985474,-105.263288,80305
105 MODEL T RD,BOULDER,Colorado,40.039123,-105.333731,80302
4615 HAMPSHIRE ST,BOULDER,Colorado,40.058914,-105.167524,80301
1325 19TH ST,BOULDER,Colorado,40.013216,-105.270378,80302
2582 SUMAC AVE,BOULDER,Colorado,40.050298,-105.264038,80304
177 BROOK CIR,BOULDER,Colorado,40.078901,-105.336754,80302
2860 LAGRANGE CIR,BOULDER,Colorado,39.977525,-105.258612,80305
2627 CRESTRIDGE CT,BOULDER,Colorado,40.130744,-105.294384,80302
775 MOHAWK DR,BOULDER,Colorado,40.002634,-105.238152,80303
3765 ARMER AVE,BOULDER,Colorado,39.982156,-105.250418,80305
1815 MARINE ST,BOULDER,Colorado,40.013902,-105.271212,80302
2421 SPRUCE ST,BOULDER,Colorado,40.022577,-105.264107,80302
5000 BUTTE ST LOT 255,BOULDER,Colorado,40.033979,-105.236179,80301
313 PEARL ST,BOULDER,Colorado,40.016158,-105.291954,80302
4500 19TH ST LOT 353,BOULDER,Colorado,40.055675,-105.275504,80304
605 WALDEN CIR,BOULDER,Colorado,39.985297,-105.23649,80305
5121 WILLIAMS FORK TRL,BOULDER,Colorado,40.068925,-105.200614,80301
518 CLOVER LN,BOULDER,Colorado,39.997669,-105.180719,80303
435 S 45TH ST,BOULDER,Colorado,39.986586,-105.242952,80305
4500 19TH ST LOT 635,BOULDER,Colorado,40.055675,-105.275504,80304
7161 WILLIAMS VILLAGE EAST HALL,BOULDER,Colorado,40.049468,-105.201421,80301
4873 BRIAR RIDGE CT,BOULDER,Colorado,40.063359,-105.182363,80301
6175 HABITAT DR,BOULDER,Colorado,40.061037,-105.209563,80301
3000 COLORADO AVE,BOULDER,Colorado,40.007059,-105.251851,80303
540 DEWEY AVE,BOULDER,Colorado,40.023456,-105.288776,80304
1670 IRIS AVE,BOULDER,Colorado,40.035888,-105.27609,80304
2711 N 95TH ST,BOULDER,Colorado,40.026392,-105.133809,80301
3100 BROADWAY,BOULDER,Colorado,40.031202,-105.281322,80304
3075 FULTON CIR,BOULDER,Colorado,40.030279,-105.241254,80301
4550 LAGUNA PL,BOULDER,Colorado,39.997831,-105.237728,80303
2939 MARINE ST,BOULDER,Colorado,40.013856,-105.256528,80303
2608 CARRIAGE HILLS DR,BOULDER,Colorado,40.07085,-105.330263,80302
6824 IDYLWILD CT,BOULDER,Colorado,40.061027,-105.194674,80301
290 30TH ST,BOULDER,Colorado,39.99596,-105.256593,80305
1282 BEAR MOUNTAIN CT,BOULDER,Colorado,39.975906,-105.262803,80305
95 S 35TH ST,BOULDER,Colorado,39.993387,-105.252005,80305
1570 EISENHOWER DR,BOULDER,Colorado,40.014079,-105.230636,80303
2990 GLENWOOD DR,BOULDER,Colorado,40.032491,-105.254053,80301
765 33RD ST,BOULDER,Colorado,40.001577,-105.250587,80303
950 MARINE ST,BOULDER,Colorado,40.011979,-105.281455,80302
4800 OSAGE DR,BOULDER,Colorado,39.989783,-105.23339,80303
8543 MIDDLE FORK RD,BOULDER,Colorado,40.12801,-105.289851,80302
905 EVERGREEN AVE,BOULDER,Colorado,40.03133,-105.285335,80304
1067 SYCAMORE AVE,BOULDER,Colorado,40.00619,-105.226828,80303
159 PEAKVIEW RD,BOULDER,Colorado,40.092293,-105.33341,80302
3240 IRIS AVE,BOULDER,Colorado,40.036225,-105.250548,80301
415 SUNNYSIDE LN,BOULDER,Colorado,39.997428,-105.26226,80302
5686 CASCADE PL,BOULDER,Colorado,40.000639,-105.220739,80303
4458 9TH ST,BOULDER,Colorado,40.056045,-105.28546,80304
210 SOUTH PEAK LN,BOULDER,Colorado,40.021933,-105.422992,80302
3080 29TH ST,BOULDER,Colorado,40.03081,-105.255835,80301
3295 MEREDITH ST,BOULDER,Colorado,40.028562,-105.251128,80301
4672 KIRKWOOD CT,BOULDER,Colorado,40.060043,-105.161514,80301
2960 DOVER DR,BOULDER,Colorado,39.987791,-105.256936,80305
2950 E COLLEGE AVE,BOULDER,Colorado,40.006878,-105.255625,80303
3145 ARNETT ST,BOULDER,Colorado,40.031929,-105.262372,80304
4415 GARNET LN,BOULDER,Colorado,40.049371,-105.270979,80304
4145 RIVERSIDE AVE,BOULDER,Colorado,40.049233,-105.281781,80304
1225 RIVERSIDE AVE,BOULDER,Colorado,40.050279,-105.281416,80304
7575 CONCORD DR,BOULDER,Colorado,40.058151,-105.176617,80301
1050 ARAPAHOE AVE,BOULDER,Colorado,40.013347,-105.280318,80302
4917 THUNDERBIRD DR,BOULDER,Colorado,39.98785,-105.232805,80303
2716 WINDING TRAIL PL,BOULDER,Colorado,40.0421,-105.259814,80304
4716 EDISON LN,BOULDER,Colorado,40.030493,-105.243836,80301
3820 NEWPORT LN,BOULDER,Colorado,40.044673,-105.291816,80304
3955 28TH ST,BOULDER,Colorado,40.046274,-105.25914,80301
4636 14TH ST,BOULDER,Colorado,40.058821,-105.279643,80304
4803 HOPKINS PL,BOULDER,Colorado,40.035067,-105.241568,80301
7734 DURHAM CIR,BOULDER,Colorado,40.064658,-105.173027,80301
60 SOUTH BOULDER CIR,BOULDER,Colorado,39.986659,-105.229031,80303
1049 STEARNS AVE,BOULDER,Colorado,40.005248,-105.203131,80303
3995 DARLEY AVE,BOULDER,Colorado,39.980099,-105.248195,80305
4542 7TH ST,BOULDER,Colorado,40.057539,-105.287651,80304
2295 GOSS CIR E,BOULDER,Colorado,40.016644,-105.264835,80302
5793 N ORCHARD CREEK CIR,BOULDER,Colorado,40.058114,-105.219301,80301
447 PEARL ST,BOULDER,Colorado,40.01607,-105.289801,80302
906 ALPINE AVE,BOULDER,Colorado,40.025249,-105.285177,80304
3143 EASTWOOD CT,BOULDER,Colorado,40.031639,-105.260611,80304
625 MANHATTAN PL,BOULDER,Colorado,39.998155,-105.230957,80303
3790 26TH ST,BOULDER,Colorado,40.043562,-105.262952,80304
1380 ROSEWOOD AVE,BOULDER,Colorado,40.056659,-105.280278,80304
3968 FULLER CT,BOULDER,Colorado,39.990125,-105.245705,80305
575 PONDEROSA DR,BOULDER,Colorado,39.982647,-105.172956,80303
2040 SPRUCE ST,BOULDER,Colorado,40.020986,-105.268846,80302
2890 15TH ST,BOULDER,Colorado,40.027825,-105.276386,80304
5574 BASELINE RD,BOULDER,Colorado,39.999957,-105.223614,80303
4816 GIBBS AVE,BOULDER,Colorado,40.032558,-105.241444,80301
2855 FOLSOM ST,BOULDER,Colorado,40.028783,-105.26452,80304
419 IRIS AVE,BOULDER,Colorado,40.036194,-105.290865,80304
210 MANHATTAN DR,BOULDER,Colorado,39.991091,-105.228617,80303
4171 COOPER CT,BOULDER,Colorado,40.002482,-105.242659,80303
1065 UNIVERSITY AVE,BOULDER,Colorado,40.010786,-105.279627,80302
754 COTTAGE LN,BOULDER,Colorado,40.051426,-105.286325,80304
4580 SUGARLOAF RD,BOULDER,Colorado,40.020708,-105.411728,80302
615 S 44TH ST,BOULDER,Colorado,39.984339,-105.243883,80305
3881 26TH ST,BOULDER,Colorado,40.044987,-105.263814,80304
770 6TH ST,BOULDER,Colorado,40.001316,-105.286223,80302
854 WALNUT ST,BOULDER,Colorado,40.015156,-105.284432,80302
345 PUMA WALK,BOULDER,Colorado,40.041111,-105.377712,80302
2902 SHADOW CREEK DR,BOULDER,Colorado,40.01018,-105.254324,80303
2223 NICHOLL ST,BOULDER,Colorado,40.029136,-105.269883,80304
835 ZAMIA AVE,BOULDER,Colorado,40.060911,-105.285582,80304
5948 GUNBARREL AVE,BOULDER,Colorado,40.060866,-105.213877,80301
577 N 76TH ST,BOULDER,Colorado,39.998424,-105.176037,80303
2884 NEBRINA PL,BOULDER,Colorado,40.043051,-105.256133,80301
721 MILLIONAIRE DR W,BOULDER,Colorado,40.015243,-105.373357,80302
5000 BUTTE ST LOT 236,BOULDER,Colorado,40.033979,-105.236179,80301
2065 JOSLYN PL,BOULDER,Colorado,40.038009,-105.2713,80304
4659 IPSWICH ST,BOULDER,Colorado,40.059833,-105.165092,80301
3694 CHASE CT,BOULDER,Colorado,39.992619,-105.247386,80305
3965 MARTIN DR,BOULDER,Colorado,39.989996,-105.246095,80305
2137 KALMIA CIR,BOULDER,Colorado,40.039793,-105.269235,80304
329 29TH ST,BOULDER,Colorado,39.997149,-105.257762,80305
1405 BROADWAY,BOULDER,Colorado,40.010962,-105.277588,80302
2850 20TH ST,BOULDER,Colorado,40.028602,-105.27133,80304
4800 SUGARLOAF RD,BOULDER,Colorado,40.020457,-105.416502,80302
155 S 42ND ST,BOULDER,Colorado,39.989715,-105.243973,80305
1265 GILLASPIE DR,BOULDER,Colorado,39.976625,-105.248451,80305
1290 TOEDTLI DR,BOULDER,Colorado,39.976841,-105.24248,80305
7497 SINGING HILLS DR,BOULDER,Colorado,40.067878,-105.179204,80301
4476 GALLEY CT,BOULDER,Colorado,40.055725,-105.199193,80301
3061 29TH ST,BOULDER,Colorado,40.030393,-105.256958,80301
5148 BUCKINGHAM RD,BOULDER,Colorado,40.066939,-105.179024,80301
1641 4TH ST,BOULDER,Colorado,40.012499,-105.291853,80302
345 MANHATTAN DR,BOULDER,Colorado,39.994236,-105.230219,80303
7725 ESSEX PL,BOULDER,Colorado,40.060631,-105.172235,80301
1160 MONROE DR,BOULDER,Colorado,40.00692,-105.241305,80303
1565 LINDEN AVE,BOULDER,Colorado,40.041483,-105.277925,80304
2890 SHADOW CREEK DR,BOULDER,Colorado,40.010319,-105.256415,80303
3795 RIDGEWAY ST,BOULDER,Colorado,40.043637,-105.249133,80301
3484 16TH CIR,BOULDER,Colorado,40.038075,-105.276424,80304
4685 TALLY HO CT,BOULDER,Colorado,40.05975,-105.197228,80301
630 HARTFORD DR,BOULDER,Colorado,39.984204,-105.259223,80305
3000 BROADWAY,BOULDER,Colorado,40.029371,-105.281284,80304
3387 CRIPPLE CREEK TRL,BOULDER,Colorado,39.967786,-105.252392,80305
3009 MADISON AVE,BOULDER,Colorado,40.006359,-105.252655,80303
1765 SUNSET BLVD,BOULDER,Colorado,40.024841,-105.273616,80304
4265 DARLEY AVE,BOULDER,Colorado,39.981648,-105.245064,80305
4435 WHITNEY PL,BOULDER,Colorado,39.980773,-105.24297,80305
3211 7TH ST,BOULDER,Colorado,40.033153,-105.288301,80304
3080 PEARL PKWY BLDG D302,BOULDER,Colorado,40.022671,-105.252455,80301
2491 23RD ST,BOULDER,Colorado,40.025624,-105.267424,80304
710 S 41ST ST,BOULDER,Colorado,39.983398,-105.246118,80305
2960 21ST ST,BOULDER,Colorado,40.029831,-105.270265,80304
2935 COLLEGE AVE,BOULDER,Colorado,40.007315,-105.255522,80303
2691 JUNIPER AVE,BOULDER,Colorado,40.038125,-105.260928,80304
520 S 45TH ST,BOULDER,Colorado,39.985477,-105.242392,80305
2255 24TH ST,BOULDER,Colorado,40.023748,-105.26539,80302
1138 PLEASANT ST,BOULDER,Colorado,40.009248,-105.277835,80302
4773 ASHFIELD CIR,BOULDER,Colorado,40.061434,-105.177785,80301
4644 ALMOND LN,BOULDER,Colorado,40.058936,-105.210295,80301
7871 DURHAM WAY,BOULDER,Colorado,40.062728,-105.169685,80301
2141 BASELINE RD,BOULDER,Colorado,40.000444,-105.265169,80302
5668 AURORA PL,BOULDER,Colorado,40.002095,-105.221172,80303
262 SPRUCE ST,BOULDER,Colorado,40.01598,-105.293126,80302
1135 PENNSYLVANIA AVE,BOULDER,Colorado,40.008928,-105.277923,80302
1887 TANSY PL,BOULDER,Colorado,40.059049,-105.273203,80304
47 RIDGE RD,BOULDER,Colorado,39.987655,-105.171269,80303
841 GAPTER RD,BOULDER,Colorado,40.002419,-105.215346,80303
7775 DURHAM CIR,BOULDER,Colorado,40.065119,-105.17181,80301
780 MOHAWK DR,BOULDER,Colorado,40.003118,-105.238,80303
4247 MONROE DR,BOULDER,Colorado,40.006256,-105.242643,80303
807 E MOORHEAD CIR,BOULDER,Colorado,39.982385,-105.235976,80305
3820 COLORADO AVE,BOULDER,Colorado,40.006041,-105.245124,80303
738 ITHACA DR,BOULDER,Colorado,39.982782,-105.26224,80305
1265 MALLARD CT,BOULDER,Colorado,40.009321,-105.212607,80303
2440 DARTMOUTH AVE,BOULDER,Colorado,39.988839,-105.26226,80305
7977 BASELINE RD,BOULDER,Colorado,40.000473,-105.163641,80303
4531 ABERDEEN PL,BOULDER,Colorado,40.057061,-105.17646,80301
3550 ELDORADO SPRINGS DR,BOULDER,Colorado,39.932714,-105.26884,80303
901 MCINTIRE ST,BOULDER,Colorado,40.004332,-105.234486,80303
4620 MACKY WAY,BOULDER,Colorado,39.975375,-105.239425,80305
3096 EDISON CT,BOULDER,Colorado,40.030774,-105.242352,80301
2131 S WALNUT ST,BOULDER,Colorado,40.019264,-105.267142,80302
2830 CARNEGIE DR,BOULDER,Colorado,39.983182,-105.257967,80305
4650 WHITE ROCK CIR,BOULDER,Colorado,40.058996,-105.21579,80301
3717 CANFIELD ST,BOULDER,Colorado,40.041511,-105.243472,80301
417 ORD DR,BOULDER,Colorado,39.995014,-105.171875,80303
4572 TANGLEWOOD TRL,BOULDER,Colorado,40.057987,-105.179405,80301
5000 BUTTE ST LOT 192,BOULDER,Colorado,40.033979,-105.236179,80301
700 36TH ST,BOULDER,Colorado,40.000429,-105.247148,80303
901 TERRACE CIR S,BOULDER,Colorado,40.067083,-105.284837,80302
4005 DARLEY AVE,BOULDER,Colorado,39.980208,-105.247988,80305
3722 SPRING VALLEY RD,BOULDER,Colorado,40.041862,-105.292453,80304
6648 DREW RANCH LN,BOULDER,Colorado,40.075708,-105.200541,80301
195 INCA PKWY,BOULDER,Colorado,39.992459,-105.24253,80303
2995 GLENWOOD DR,BOULDER,Colorado,40.033385,-105.254336,80301
935 BROADWAY,BOULDER,Colorado,40.003969,-105.269367,80302
4604 TALBOT DR,BOULDER,Colorado,40.002029,-105.237339,80303
6495 KALUA RD,BOULDER,Colorado,40.056297,-105.201703,80301
5740 SLICK ROCK CT,BOULDER,Colorado,40.076364,-105.19515,80301
3086 BROADWAY,BOULDER,Colorado,40.03081,-105.281736,80304
3526 KIRKWOOD PL,BOULDER,Colorado,40.03835,-105.270791,80304
505 27TH WAY,BOULDER,Colorado,39.997917,-105.261095,80305
2905 AURORA AVE,BOULDER,Colorado,40.003881,-105.255688,80303
1121 30TH ST,BOULDER,Colorado,40.006661,-105.253452,80303
1425 BLUE SAGE CT,BOULDER,Colorado,39.973011,-105.264908,80305
200 ECHO PL,BOULDER,Colorado,39.995458,-105.265988,80302
2852 KALMIA AVE,BOULDER,Colorado,40.039464,-105.256287,80301
1830 16TH ST,BOULDER,Colorado,40.017613,-105.273966,80302
1372 WICKLOW ST,BOULDER,Colorado,40.010298,-105.140015,80303
3477 IRIS CT,BOULDER,Colorado,40.037828,-105.275942,80304
4714 HAMPSHIRE ST,BOULDER,Colorado,40.060298,-105.166535,80301
1098 FAIRWAY CT,BOULDER,Colorado,40.00678,-105.224723,80303
2810 LAGRANGE CIR,BOULDER,Colorado,39.977827,-105.257676,80305
5515 RACQUET LN,BOULDER,Colorado,40.003693,-105.224811,80303
750 S 42ND ST,BOULDER,Colorado,39.982658,-105.245184,80305
3574 BROADWAY,BOULDER,Colorado,40.038732,-105.281719,80304
1420 SUNSET BLVD,BOULDER,Colorado,40.022978,-105.277231,80304
1305 5TH ST,BOULDER,Colorado,40.009571,-105.28951,80302
2805 SUNDOWN LN,BOULDER,Colorado,40.010594,-105.257842,80303
2727 FOLSOM ST,BOULDER,Colorado,40.027682,-105.263624,80304
955 LARAMIE BLVD,BOULDER,Colorado,40.066078,-105.284728,80304
3335 EUCLID AVE,BOULDER,Colorado,40.005323,-105.250057,80303
7042 ROARING FORK TRL,BOULDER,Colorado,40.068801,-105.189656,80301
3525 28TH ST,BOULDER,Colorado,40.038522,-105.259102,80301
2289 PARK LAKE DR,BOULDER,Colorado,40.021813,-105.149143,80301
3795 BIRCHWOOD DR,BOULDER,Colorado,40.043172,-105.259958,80304
3508 KIRKWOOD PL,BOULDER,Colorado,40.03828,-105.271426,80304
4793 BRIAR RIDGE TRL,BOULDER,Colorado,40.061796,-105.18116,80301
2995 EAGLE WAY,BOULDER,Colorado,40.031679,-105.254171,80301
3065 GALENA WAY,BOULDER,Colorado,39.965685,-105.255283,80305
3808 TELLURIDE PL,BOULDER,Colorado,39.967213,-105.249352,80305
5246 DESERT PINE CT,BOULDER,Colorado,40.070001,-105.180806,80301
760 LOCUST AVE,BOULDER,Colorado,40.053736,-105.287655,80304
105 S 36TH ST,BOULDER,Colorado,39.991793,-105.251455,80305
4595 SQUIRES CIR,BOULDER,Colorado,39.979638,-105.241965,80305
230 BELLEVUE DR,BOULDER,Colorado,39.995096,-105.275603,80302
1830 22ND ST,BOULDER,Colorado,40.018362,-105.265672,80302
6686 JAY RD,BOULDER,Colorado,40.050843,-105.197937,80301
1295 HARTFORD DR,BOULDER,Colorado,39.976568,-105.255907,80305
1286 AIKINS WAY,BOULDER,Colorado,39.974975,-105.238625,80305
3303 BLUFF ST,BOULDER,Colorado,40.027961,-105.250248,80301
2200 TOPAZ DR,BOULDER,Colorado,40.049175,-105.268371,80304
1720 S MARSHALL RD TRLR 40,BOULDER,Colorado,39.970084,-105.236156,80027
2000 CANYON BLVD,BOULDER,Colorado,40.016994,-105.268792,80302
698 WALDEN CIR,BOULDER,Colorado,39.983046,-105.236738,80305
3055 FOLSOM ST,BOULDER,Colorado,40.030952,-105.263416,80304
4727 BERKSHIRE CT,BOULDER,Colorado,40.060575,-105.175558,80301
3565 ARTHUR CT,BOULDER,Colorado,40.039435,-105.260393,80304
1926 CANYON BLVD,BOULDER,Colorado,40.016992,-105.269532,80302
2000 WALNUT ST,BOULDER,Colorado,40.018665,-105.268915,80302
1505 BRADLEY DR,BOULDER,Colorado,39.972535,-105.239063,80305
1842 CANYON BLVD,BOULDER,Colorado,40.016828,-105.270659,80302
2715 IRIS AVE,BOULDER,Colorado,40.036589,-105.262597,80304
1456 GREENBRIAR BLVD,BOULDER,Colorado,39.972792,-105.240979,80305
1104 JUNIPER AVE,BOULDER,Colorado,40.036862,-105.283232,80304
1440 BALSAM AVE,BOULDER,Colorado,40.02644,-105.277457,80304
4768 FRANKLIN DR,BOULDER,Colorado,40.032675,-105.243192,80301
2925 GLENWOOD DR,BOULDER,Colorado,40.033455,-105.256535,80301
5000 BUTTE ST LOT 102,BOULDER,Colorado,40.033979,-105.236179,80301
9114 LIBBY HALL,BOULDER,Colorado,40.049468,-105.201421,80301
3878 CAMPO CT,BOULDER,Colorado,40.0465,-105.250949,80301
335 OAKWOOD PL,BOULDER,Colorado,40.045701,-105.292634,80304
3970 NEWPORT LN,BOULDER,Colorado,40.046346,-105.290461,80304
357 PEARL ST,BOULDER,Colorado,40.015921,-105.291012,80302
5791 S ORCHARD CREEK CIR,BOULDER,Colorado,40.055506,-105.219548,80301
415 S 39TH ST,BOULDER,Colorado,39.986949,-105.248527,80305
6657 LOOKOUT RD,BOULDER,Colorado,40.073149,-105.19811,80026
4701 N 51ST ST,BOULDER,Colorado,40.060105,-105.236665,80301
3006 FULTON CIR,BOULDER,Colorado,40.030468,-105.241493,80301
3963 SPRINGLEAF LN,BOULDER,Colorado,40.046972,-105.282878,80304
2478 VINE PL,BOULDER,Colorado,40.053006,-105.264707,80304
1725 CANYON BLVD,BOULDER,Colorado,40.017612,-105.271895,80302
1720 BLUFF ST,BOULDER,Colorado,40.023181,-105.274285,80304
1028 MAXWELL AVE,BOULDER,Colorado,40.021529,-105.283346,80304
5185 MERRITT DR,BOULDER,Colorado,40.012681,-105.230196,80303
4645 15TH ST,BOULDER,Colorado,40.05901,-105.278708,80304
4990 OSAGE DR,BOULDER,Colorado,39.989972,-105.232602,80303
2524 MAPLETON AVE,BOULDER,Colorado,40.024306,-105.263267,80304
2041 EVERGREEN AVE,BOULDER,Colorado,40.030603,-105.270866,80304
1434 PATTON DR,BOULDER,Colorado,40.011484,-105.228745,80303
3315 CHISHOLM TRL,BOULDER,Colorado,40.035952,-105.250988,80301
2002 BASELINE RD,BOULDER,Colorado,39.999833,-105.267545,80302
4658 WHITE ROCK CIR,BOULDER,Colorado,40.058996,-105.214751,80301
1665 DOGWOOD LN,BOULDER,Colorado,40.04069,-105.276627,80304
6513 RED HILL RD,BOULDER,Colorado,40.09299,-105.304499,80302
1200 COLLEGE AVE,BOULDER,Colorado,40.0069,-105.277026,80302
4700 SHAWNEE PL,BOULDER,Colorado,39.992025,-105.235213,80303
4659 17TH ST,BOULDER,Colorado,40.059376,-105.276509,80304
4231 EATON CT,BOULDER,Colorado,40.002799,-105.242654,80303
676 WALDEN CIR,BOULDER,Colorado,39.983552,-105.236473,80305
725 UNION AVE,BOULDER,Colorado,40.053246,-105.289056,80304
1334 SCRUB OAK CIR,BOULDER,Colorado,39.975255,-105.262213,80305
4662 HAMPSHIRE ST,BOULDER,Colorado,40.059882,-105.166647,80301
777 BROADWAY RM 11,BOULDER,Colorado,40.002412,-105.266537,80302
606 WALDEN CIR,BOULDER,Colorado,39.985254,-105.236127,80305
700 WALNUT ST,BOULDER,Colorado,40.015241,-105.28586,80302
3120 BROADWAY,BOULDER,Colorado,40.031715,-105.281808,80304
5037 VALMONT RD,BOULDER,Colorado,40.02943,-105.2359,80301
3330 MOORHEAD AVE,BOULDER,Colorado,39.99588,-105.253187,80305
4901 BEAR CREEK APTS B,BOULDER,Colorado,40.049468,-105.201421,80301
2870 E COLLEGE AVE,BOULDER,Colorado,40.006832,-105.256976,80303
4500 19TH ST,BOULDER,Colorado,40.055675,-105.275504,80304
600 MANHATTAN DR,BOULDER,Colorado,39.998386,-105.228625,80303
4500 19TH ST LOT 436,BOULDER,Colorado,40.055675,-105.275504,80304
2964 GLENWOOD DR,BOULDER,Colorado,40.032558,-105.254855,80301
1929 JOSLYN CT,BOULDER,Colorado,40.037789,-105.272372,80304
4886 KINGS RIDGE BLVD,BOULDER,Colorado,40.032617,-105.240204,80301
1044 MAXWELL AVE,BOULDER,Colorado,40.021523,-105.283074,80304
5128 WILLIAMS VILLAGE EAST HALL,BOULDER,Colorado,40.066356,-105.199544,80301
2775 TAFT DR BLDG A-1206,BOULDER,Colorado,40.010772,-105.259677,80302
9533 MOUNTAIN RIDGE DR,BOULDER,Colorado,40.147169,-105.289258,80302
380 S 41ST ST,BOULDER,Colorado,39.987316,-105.246083,80305
9028 FARRAND HALL,BOULDER,Colorado,40.049468,-105.201421,80301
2525 TAFT DR,BOULDER,Colorado,40.010715,-105.26201,80302
970 28TH ST,BOULDER,Colorado,40.006366,-105.257254,80303
2788 MOORHEAD AVE,BOULDER,Colorado,39.99876,-105.258413,80305
635 WALNUT ST,BOULDER,Colorado,40.015815,-105.286729,80302
649 HARTFORD DR,BOULDER,Colorado,39.984642,-105.260517,80305
626 MARINE ST,BOULDER,Colorado,40.011364,-105.286578,80302
1498 ORCHARD AVE,BOULDER,Colorado,40.045773,-105.278832,80304
768 17TH ST,BOULDER,Colorado,40.00137,-105.270933,80302
4686 TALBOT DR,BOULDER,Colorado,40.001636,-105.237048,80303
430 DEWEY AVE,BOULDER,Colorado,40.023442,-105.290951,80304
4564 S HAMPTON CIR,BOULDER,Colorado,40.045948,-105.245025,80301
390 LAKESHORE PARK RD,BOULDER,Colorado,39.957867,-105.367768,80302
7296 OLDE STAGE RD,BOULDER,Colorado,40.108385,-105.302475,80302
2801 21ST ST,BOULDER,Colorado,40.027915,-105.270781,80304
6262 WILLOW LN,BOULDER,Colorado,40.059351,-105.20755,80301
4984 CLUBHOUSE CT,BOULDER,Colorado,40.065097,-105.182783,80301
4220 19TH ST,BOULDER,Colorado,40.051111,-105.272035,80304
1466 MARSHALL RD,BOULDER,Colorado,39.959671,-105.231277,80305
3510 CATALPA WAY,BOULDER,Colorado,40.038751,-105.273365,80304
4318 ELDORADO SPRINGS DR,BOULDER,Colorado,39.94168,-105.252588,80303
1225 BEREA DR,BOULDER,Colorado,39.976464,-105.250525,80305
7311 OLDE STAGE RD,BOULDER,Colorado,40.107423,-105.304397,80302
4739 HARWICH ST,BOULDER,Colorado,40.060871,-105.166002,80301
5111 WILLIAMS FORK TRL,BOULDER,Colorado,40.068944,-105.199433,80301
7200 AUGUSTA DR,BOULDER,Colorado,40.07128,-105.185483,80301
340 FOX DR,BOULDER,Colorado,39.995285,-105.243577,80303
2920 16TH ST,BOULDER,Colorado,40.028356,-105.275507,80304
1063 YALE CIR,BOULDER,Colorado,39.9792,-105.251132,80305
3011 14TH ST,BOULDER,Colorado,40.03069,-105.277719,80304
3657 PASEO DEL PRADO,BOULDER,Colorado,40.041106,-105.257761,80301
4500 19TH ST LOT 165,BOULDER,Colorado,40.055675,-105.275504,80304
3271 WRIGHT AVE,BOULDER,Colorado,40.032745,-105.238672,80301
1284 BLACKBIRD CT,BOULDER,Colorado,40.009273,-105.208729,80303
1100 28TH ST,BOULDER,Colorado,40.007604,-105.257694,80303
1700 22ND ST,BOULDER,Colorado,40.016558,-105.26589,80302
3335 19TH ST,BOULDER,Colorado,40.034923,-105.272973,80304
3003 VALMONT RD LOT 260,BOULDER,Colorado,40.031073,-105.252567,80301
4632 STARBOARD DR,BOULDER,Colorado,40.058648,-105.199891,80301
440 HAWTHORN AVE,BOULDER,Colorado,40.034766,-105.290784,80304
3255 20TH ST,BOULDER,Colorado,40.034472,-105.271322,80304
1260 ELDER AVE,BOULDER,Colorado,40.029951,-105.281005,80304
2037 WALNUT ST,BOULDER,Colorado,40.019492,-105.268625,80302
433 DEER TRAIL CIR,BOULDER,Colorado,40.082267,-105.358029,80302
4631 TALBOT DR,BOULDER,Colorado,40.00202,-105.238993,80303
2409 VINEYARD PL,BOULDER,Colorado,40.054372,-105.265234,80304
2301 PEARL ST,BOULDER,Colorado,40.02119,-105.265414,80302
4806 MCKINLEY DR,BOULDER,Colorado,40.011508,-105.234534,80303
1026 LINCOLN PL,BOULDER,Colorado,40.005958,-105.280787,80302
2259 NICHOLL ST,BOULDER,Colorado,40.029814,-105.268451,80304
585 PIKA RD,BOULDER,Colorado,39.957235,-105.3332,80302
1047 BALSAM AVE,BOULDER,Colorado,40.026891,-105.283538,80304
741 WILD TURKEY TRL,BOULDER,Colorado,40.043086,-105.371868,80302
3034 LINDEN DR,BOULDER,Colorado,40.051918,-105.312697,80304
985 10TH ST,BOULDER,Colorado,40.00524,-105.280287,80302
1936 TIMBER LN,BOULDER,Colorado,40.047654,-105.316601,80304
1030 GRANDVIEW AVE,BOULDER,Colorado,40.011278,-105.27925,80302
2885 17TH ST,BOULDER,Colorado,40.027811,-105.275141,80304
3900 BRITTING AVE,BOULDER,Colorado,39.980949,-105.249157,80305
4500 19TH ST LOT 95,BOULDER,Colorado,40.055675,-105.275504,80304
4571 TALLY HO TRL,BOULDER,Colorado,40.057142,-105.197062,80301
745 THOMAS DR,BOULDER,Colorado,40.000542,-105.23886,80303
2610 6TH ST,BOULDER,Colorado,40.024225,-105.288601,80304
3525 MOORHEAD AVE,BOULDER,Colorado,39.994797,-105.250126,80305
3855 BIRCHWOOD DR,BOULDER,Colorado,40.044251,-105.26182,80304
4017 WONDERLAND HILL AVE,BOULDER,Colorado,40.047544,-105.287708,80304
735 ARAPAHOE AVE,BOULDER,Colorado,40.013151,-105.284956,80302
196 N CEDAR BROOK RD,BOULDER,Colorado,40.052621,-105.302993,80304
4559 SANDPIPER CT,BOULDER,Colorado,40.056095,-105.20093,80301
4500 SANDPIPER CT,BOULDER,Colorado,40.055939,-105.200054,80301
944 YELLOW PINE AVE,BOULDER,Colorado,40.059687,-105.285222,80304
1460 KINGWOOD PL,BOULDER,Colorado,40.039766,-105.278746,80304
728 14TH ST,BOULDER,Colorado,40.000597,-105.274611,80302
2948 EAGLE WAY,BOULDER,Colorado,40.030555,-105.254602,80301
7112 OLD POST RD,BOULDER,Colorado,40.0575,-105.187313,80301
2833 BROADWAY,BOULDER,Colorado,40.027374,-105.28238,80304
3535 28TH ST,BOULDER,Colorado,40.038802,-105.259553,80301
4237 MONROE DR,BOULDER,Colorado,40.005847,-105.241106,80303
2290 JUNIPER AVE,BOULDER,Colorado,40.036853,-105.266601,80304
847 E MOORHEAD CIR,BOULDER,Colorado,39.982072,-105.23671,80305
1275 TAMARACK AVE,BOULDER,Colorado,40.051899,-105.281139,80304
2641 4TH ST,BOULDER,Colorado,40.023988,-105.291717,80304
4317 BUTLER CIR,BOULDER,Colorado,39.978615,-105.245615,80305
7469 SPY GLASS CT,BOULDER,Colorado,40.068871,-105.180924,80301
967 14TH ST,BOULDER,Colorado,40.004807,-105.275371,80302
963 10TH ST,BOULDER,Colorado,40.004894,-105.28027,80302
436 WEWOKA DR,BOULDER,Colorado,39.994961,-105.17295,80303
175 PAWNEE DR,BOULDER,Colorado,39.990991,-105.236769,80303
742 PEAKVIEW RD,BOULDER,Colorado,40.096186,-105.325253,80302
755 COTTAGE LN,BOULDER,Colorado,40.051757,-105.286517,80304
935 GRANDVIEW AVE,BOULDER,Colorado,40.011301,-105.281868,80302
3287 N 95TH ST,BOULDER,Colorado,40.032172,-105.138168,80301
1445 WESTVIEW DR,BOULDER,Colorado,40.01207,-105.195986,80303
4500 19TH ST LOT 367,BOULDER,Colorado,40.055675,-105.275504,80304
525 S 41ST ST,BOULDER,Colorado,39.985274,-105.246684,80305
2757 GLENWOOD CT,BOULDER,Colorado,40.033611,-105.260062,80304
50 SOUTH BOULDER CIR,BOULDER,Colorado,39.98743,-105.229303,80303
9198 FARRAND HALL,BOULDER,Colorado,40.049468,-105.201421,80301
1380 MEADOW AVE,BOULDER,Colorado,40.043422,-105.279573,80304
741 PEARL ST,BOULDER,Colorado,40.016909,-105.285786,80302
1444 WONDERVIEW CT,BOULDER,Colorado,40.012005,-105.21051,80303
916 14TH ST,BOULDER,Colorado,40.004041,-105.27464,80302
5000 BUTTE ST LOT 139,BOULDER,Colorado,40.033979,-105.236179,80301
2119 MAPLETON AVE,BOULDER,Colorado,40.023761,-105.268782,80304
2691 30TH ST,BOULDER,Colorado,40.027535,-105.254336,80301
5505 VALMONT RD LOT 212,BOULDER,Colorado,40.034299,-105.223092,80301
911 11TH ST,BOULDER,Colorado,40.004039,-105.279042,80302
6921 HARVEST RD,BOULDER,Colorado,40.072493,-105.1921,80301
3060 29TH ST,BOULDER,Colorado,40.03114,-105.25581,80301
1720 S MARSHALL RD TRLR 28,BOULDER,Colorado,39.970084,-105.236156,80027
2019 GROVE ST,BOULDER,Colorado,40.015683,-105.26843,80302
3765 SMUGGLER PL,BOULDER,Colorado,39.965298,-105.249321,80305
4691 INGRAM CT,BOULDER,Colorado,39.987727,-105.238937,80305
440 S 45TH ST,BOULDER,Colorado,39.986575,-105.242378,80305
1951 GRANDVIEW AVE,BOULDER,Colorado,40.01209,-105.269021,80302
4867 FAIRLAWN CIR,BOULDER,Colorado,40.06317,-105.172552,80301
7877 ANDREWS WAY,BOULDER,Colorado,40.005986,-105.170037,80303
9120 FARRAND HALL,BOULDER,Colorado,40.049468,-105.201421,80301
3386 HICKOK PL,BOULDER,Colorado,40.034739,-105.249245,80301
1561 S FOOTHILLS HWY LOT B1,BOULDER,Colorado,39.956445,-105.231073,80305
2430 GLENWOOD DR,BOULDER,Colorado,40.032969,-105.265165,80304
4140 MONROE DR,BOULDER,Colorado,40.004769,-105.242418,80303
1206 SUMAC AVE,BOULDER,Colorado,40.050636,-105.281673,80304
450 S 41ST ST,BOULDER,Colorado,39.986403,-105.246111,80305
805 LINDEN AVE,BOULDER,Colorado,40.041343,-105.286461,80304
7983 GRASMERE DR,BOULDER,Colorado,40.061713,-105.166963,80301
3315 HEIDELBERG DR,BOULDER,Colorado,39.972944,-105.254386,80305
700 38TH ST,BOULDER,Colorado,40.000432,-105.245318,80303
820 SPRUCE ST,BOULDER,Colorado,40.017688,-105.284684,80302
2507 BROADWAY,BOULDER,Colorado,40.023464,-105.28231,80304
2012 GROVE ST,BOULDER,Colorado,40.015197,-105.268673,80302
9049 ADEN HALL,BOULDER,Colorado,40.049468,-105.201421,80301
510 S 42ND ST,BOULDER,Colorado,39.985641,-105.245199,80305
525 VALLEY VIEW DR,BOULDER,Colorado,40.025298,-105.288923,80304
4500 19TH ST LOT 218,BOULDER,Colorado,40.055675,-105.275504,80304
5505 VALMONT RD LOT 170,BOULDER,Colorado,40.034299,-105.223092,80301
898 RACQUET LN,BOULDER,Colorado,40.003193,-105.224075,80303
1402 MEADOWLARK DR,BOULDER,Colorado,40.01163,-105.196916,80303
1360 FAIRFIELD DR,BOULDER,Colorado,39.975712,-105.253762,80305
2042 WALNUT ST,BOULDER,Colorado,40.018984,-105.268241,80302
3114 7TH ST,BOULDER,Colorado,40.031484,-105.287636,80304
5020 RALSTON ST,BOULDER,Colorado,40.065571,-105.285848,80304
604 TANTRA DR,BOULDER,Colorado,39.98436,-105.238953,80305
5908 JAY RD,BOULDER,Colorado,40.050335,-105.216071,80301
60 MANHATTAN DR,BOULDER,Colorado,39.987206,-105.227213,80303
2580 JUNIPER AVE,BOULDER,Colorado,40.036843,-105.263732,80304
2635 MAPLETON AVE LOT 31,BOULDER,Colorado,40.026086,-105.261821,80304
3653 CHASE CT,BOULDER,Colorado,39.992998,-105.248102,80305
2255 SPRUCE ST,BOULDER,Colorado,40.022011,-105.266425,80302
2845 7TH ST,BOULDER,Colorado,40.027393,-105.289459,80304
431 IRIS AVE,BOULDER,Colorado,40.036184,-105.290432,80304
6980 SWEET WATER CT,BOULDER,Colorado,40.056742,-105.190513,80301
792 14TH ST,BOULDER,Colorado,40.001619,-105.27462,80302
1750 OAK AVE,BOULDER,Colorado,40.044541,-105.274944,80304
1267 4 MILE CANYON DR,BOULDER,Colorado,40.418808,-104.683837,80631
1591 REDWOOD AVE,BOULDER,Colorado,40.049555,-105.276855,80304
4093 GUADELOUPE ST,BOULDER,Colorado,40.049001,-105.252587,80301
1130 BEREA DR,BOULDER,Colorado,39.977853,-105.249773,80305
DARLEY SOUTH HALL,BOULDER,Colorado,39.978878,-105.252591,80305
2510 VASSAR DR,BOULDER,Colorado,39.985047,-105.260462,80305
1165 GEORGETOWN RD,BOULDER,Colorado,39.978159,-105.254867,80305
2930 SHADOW CREEK DR,BOULDER,Colorado,40.010181,-105.253981,80303
9082 FARRAND HALL,BOULDER,Colorado,40.049468,-105.201421,80301
2980 EUCLID AVE,BOULDER,Colorado,40.005025,-105.253725,80303
2324 14TH ST,BOULDER,Colorado,40.022012,-105.278178,80304
1460 CAVAN CT,BOULDER,Colorado,40.012238,-105.136007,80303
9068 FARRAND HALL,BOULDER,Colorado,40.049468,-105.201421,80301
830 WAITE DR,BOULDER,Colorado,40.003834,-105.234441,80303
440 GRAPE AVE,BOULDER,Colorado,40.033974,-105.290898,80304
825 39TH ST,BOULDER,Colorado,40.002458,-105.244932,80303
3188 REDSTONE RD,BOULDER,Colorado,39.965769,-105.253461,80305
841 20TH ST,BOULDER,Colorado,40.002565,-105.268083,80302
1536 CHAMBERS DR,BOULDER,Colorado,39.972973,-105.241015,80305
1430 18TH ST,BOULDER,Colorado,40.014372,-105.271321,80302
4229 SUMAC CT,BOULDER,Colorado,40.050674,-105.256029,80301
2601 6TH ST,BOULDER,Colorado,40.023948,-105.289313,80304
1602 GOLD RUN RD,BOULDER,Colorado,40.056983,-105.394089,80302
1227 AIKINS WAY,BOULDER,Colorado,39.976407,-105.239994,80305
3356 SENTINEL DR,BOULDER,Colorado,40.036077,-105.239695,80301
790 NORTHSTAR CT,BOULDER,Colorado,40.043513,-105.287519,80304
730 38TH ST,BOULDER,Colorado,40.001187,-105.245318,80303
4110 RIVERSIDE AVE,BOULDER,Colorado,40.049632,-105.281626,80304
356 RIDGEVIEW LN,BOULDER,Colorado,40.076382,-105.330963,80302
2434 MAPLETON AVE,BOULDER,Colorado,40.023947,-105.264419,80304
5107 GALLATIN PL,BOULDER,Colorado,40.009557,-105.231221,80303
4630 MACKY WAY,BOULDER,Colorado,39.975486,-105.239225,80305
7150 SOUTH BOULDER RD,BOULDER,Colorado,39.980631,-105.184229,80303
2410 VASSAR DR,BOULDER,Colorado,39.984777,-105.261561,80305
2335 PANORAMA AVE,BOULDER,Colorado,40.026507,-105.26662,80304
3735 RIDGEWAY ST,BOULDER,Colorado,40.042731,-105.249685,80301
1475 KENDALL DR,BOULDER,Colorado,39.973977,-105.25941,80305
1077 9TH ST,BOULDER,Colorado,40.007012,-105.282346,80302
4560 SANDPIPER CT,BOULDER,Colorado,40.056302,-105.200481,80301
142 MEADOWLOOK WAY,BOULDER,Colorado,40.053719,-105.302489,80304
1077 CANYON BLVD,BOULDER,Colorado,40.015786,-105.280895,80302
1195 35TH ST,BOULDER,Colorado,40.007101,-105.248688,80303
825 GRAPE AVE,BOULDER,Colorado,40.034453,-105.286727,80304
465 S 43RD ST,BOULDER,Colorado,39.986041,-105.244813,80305
3605 TABLE MESA DR,BOULDER,Colorado,39.985662,-105.252559,80305
885 SWITZERLAND PARK RD,BOULDER,Colorado,40.001757,-105.434779,80302
3300 DOVER DR,BOULDER,Colorado,39.986757,-105.253835,80305
1318 SANDSTONE CT,BOULDER,Colorado,39.975179,-105.260981,80305
1320 UPLAND AVE,BOULDER,Colorado,40.052447,-105.280449,80304
1673 ZAMIA AVE,BOULDER,Colorado,40.060397,-105.276139,80304
401 PINE ST,BOULDER,Colorado,39.976957,-105.137698,80027
1510 20TH ST,BOULDER,Colorado,40.013988,-105.268851,80302
2237 6TH ST,BOULDER,Colorado,40.019154,-105.288884,80302
348 ARAPAHOE AVE,BOULDER,Colorado,40.012632,-105.29289,80302
2237 GOSS CIR E,BOULDER,Colorado,40.016405,-105.26582,80302
450 S 43RD ST,BOULDER,Colorado,39.986405,-105.244252,80305
3060 PEARL PKWY,BOULDER,Colorado,40.023115,-105.252402,80301
5520 STONEWALL PL,BOULDER,Colorado,40.001401,-105.224643,80303
1006 10TH ST,BOULDER,Colorado,40.00562,-105.279549,80302
1315 TIPPERARY ST,BOULDER,Colorado,40.009119,-105.139387,80303
645 MANHATTAN PL,BOULDER,Colorado,39.999082,-105.230903,80303
2590 JUNIPER AVE,BOULDER,Colorado,40.037139,-105.263708,80304
8196 MIDDLE FORK RD,BOULDER,Colorado,40.117809,-105.289165,80302
2228 CANYON BLVD,BOULDER,Colorado,40.017003,-105.265461,80302
5123 WILLIAMS FORK TRL,BOULDER,Colorado,40.068735,-105.201741,80301
7229 PETURSDALE CT,BOULDER,Colorado,40.052341,-105.185963,80301
2320 PANORAMA AVE,BOULDER,Colorado,40.026083,-105.266891,80304
3360 4TH ST,BOULDER,Colorado,40.03619,-105.291369,80304
1655 9TH ST,BOULDER,Colorado,40.01287,-105.283623,80302
2635 MAPLETON AVE LOT 162,BOULDER,Colorado,40.026086,-105.261821,80304
5950 OLDE STAGE RD,BOULDER,Colorado,40.083193,-105.301577,80302
4730 HOLIDAY DR,BOULDER,Colorado,40.060462,-105.27937,80304
3702 RIDGEWAY ST,BOULDER,Colorado,40.042357,-105.249123,80301
2905 16TH ST,BOULDER,Colorado,40.028177,-105.276033,80304
4007 WONDERLAND HILL AVE,BOULDER,Colorado,40.047384,-105.287291,80304
3700 WONDERLAND HILL AVE,BOULDER,Colorado,40.041262,-105.290441,80304
1475 FOLSOM ST,BOULDER,Colorado,40.013643,-105.263409,80302
7 BENTHAVEN PL,BOULDER,Colorado,39.973396,-105.260527,80305
7068 INDIAN PEAKS TRL,BOULDER,Colorado,40.063325,-105.187842,80301
6762 BUGLE CT,BOULDER,Colorado,40.057878,-105.196084,80301
955 16TH ST,BOULDER,Colorado,40.004735,-105.272917,80302
5539 JEWEL CREEK CT,BOULDER,Colorado,40.0745,-105.196447,80301
3105 23RD ST,BOULDER,Colorado,40.031167,-105.267247,80304
805 PINE BROOK RD,BOULDER,Colorado,40.056851,-105.31093,80304
4645 BROADWAY STE C1,BOULDER,Colorado,40.059103,-105.282902,80304
3345 CHISHOLM TRL,BOULDER,Colorado,40.036002,-105.250731,80301
660 S LASHLEY LN,BOULDER,Colorado,39.984878,-105.2483,80305
967 POORMAN RD,BOULDER,Colorado,40.031776,-105.333952,80302
415 S 42ND ST,BOULDER,Colorado,39.986959,-105.245738,80305
4410 SANDPIPER CIR,BOULDER,Colorado,40.05485,-105.199897,80301
5355 TENINO AVE,BOULDER,Colorado,39.996746,-105.2271,80303
575 MANHATTAN DR,BOULDER,Colorado,39.997867,-105.230096,80303
3309 4TH ST,BOULDER,Colorado,40.035502,-105.291944,80304
803 MARINE ST,BOULDER,Colorado,40.012088,-105.2841,80302
1575 ALPINE AVE,BOULDER,Colorado,40.025746,-105.276006,80304
4717 W MOORHEAD CIR,BOULDER,Colorado,39.979858,-105.237808,80305
1141 MONROE DR,BOULDER,Colorado,40.006539,-105.242915,80303
1420 RIVERSIDE AVE,BOULDER,Colorado,40.049836,-105.280003,80304
4486 HAMILTON CT,BOULDER,Colorado,39.987879,-105.240423,80305
3445 LONGWOOD AVE,BOULDER,Colorado,39.968796,-105.252322,80305
6264 FLAGSTAFF RD,BOULDER,Colorado,39.97127,-105.338817,80302
2202 BLUFF ST,BOULDER,Colorado,40.024465,-105.267983,80304
4720 HARRISON AVE,BOULDER,Colorado,40.009123,-105.236753,80303
2802 SUNDOWN LN,BOULDER,Colorado,40.009761,-105.257708,80303
315 S 36TH ST,BOULDER,Colorado,39.988638,-105.251386,80305
1925 30TH ST,BOULDER,Colorado,40.020481,-105.254101,80301
1538 CHAMBERS DR,BOULDER,Colorado,39.9729,-105.241022,80305
3961 BROADWAY,BOULDER,Colorado,40.046685,-105.282391,80304
3400 MADISON AVE,BOULDER,Colorado,40.005708,-105.2495,80303
6465 OUTRIGGER CT,BOULDER,Colorado,40.05731,-105.203443,80301
4775 WHITE ROCK CIR,BOULDER,Colorado,40.059875,-105.214768,80301
1230 ALBION RD,BOULDER,Colorado,39.976492,-105.24913,80305
720 TOEDTLI DR BSMT,BOULDER,Colorado,39.981908,-105.247914,80305
4435 WELLINGTON RD,BOULDER,Colorado,40.055328,-105.213819,80301
1579 48TH ST,BOULDER,Colorado,40.014329,-105.235458,80303
230 31ST ST,BOULDER,Colorado,39.99497,-105.255583,80305
2445 JUNIPER AVE,BOULDER,Colorado,40.03754,-105.265209,80304
4325 LUDLOW ST,BOULDER,Colorado,39.975882,-105.245461,80305
15 BUCKNELL CT,BOULDER,Colorado,39.993136,-105.256395,80305
4505 COMANCHE DR,BOULDER,Colorado,39.997061,-105.237388,80303
4875 SIOUX DR,BOULDER,Colorado,39.993411,-105.233579,80303
280 FOX DR,BOULDER,Colorado,39.994104,-105.24369,80303
3470 ASH AVE,BOULDER,Colorado,39.994676,-105.25139,80305
311 SPRUCE ST,BOULDER,Colorado,40.01678,-105.292011,80302
1193 OLD TALE RD,BOULDER,Colorado,40.008114,-105.216633,80303
1601 YELLOW PINE AVE,BOULDER,Colorado,40.060338,-105.277185,80304
7957 ARAPAHOE,BOULDER,Colorado,40.01573,-105.16728,80303
7269 WILLIAMS VILLAGE EAST HALL,BOULDER,Colorado,40.049468,-105.201421,80301
749 9TH ST,BOULDER,Colorado,40.001532,-105.282297,80302
4656 TANGLEWOOD TRL,BOULDER,Colorado,40.059543,-105.17889,80301
2005 SPRUCE ST,BOULDER,Colorado,40.021391,-105.269916,80302
3980 BOSQUE CT,BOULDER,Colorado,40.047293,-105.252251,80301
890 33RD ST,BOULDER,Colorado,40.003543,-105.250035,80303
2546 VINE PL,BOULDER,Colorado,40.053005,-105.264015,80304
4062 PINON DR,BOULDER,Colorado,39.998057,-105.242836,80303
2905 32ND ST,BOULDER,Colorado,40.028245,-105.251911,80301
3305 EUCLID AVE,BOULDER,Colorado,40.005325,-105.250345,80303
5818 ORCHARD CREEK LN,BOULDER,Colorado,40.056157,-105.218796,80301
875 7TH ST,BOULDER,Colorado,40.003303,-105.285814,80302
290 S 38TH ST,BOULDER,Colorado,39.988613,-105.248545,80305
602 MAXWELL AVE,BOULDER,Colorado,40.021589,-105.288352,80304
4965 TWIN LAKES RD,BOULDER,Colorado,40.064955,-105.197108,80301
415 ERIE DR,BOULDER,Colorado,39.996693,-105.245679,80303
2292 HOLYOKE DR,BOULDER,Colorado,39.979564,-105.264735,80305
1327 LARK CT,BOULDER,Colorado,40.010492,-105.209739,80303
964 UTICA CIR,BOULDER,Colorado,40.05186,-105.284479,80304
3735 SMUGGLER PL,BOULDER,Colorado,39.96546,-105.249567,80305
6623 ARAPAHOE RD,BOULDER,Colorado,40.014934,-105.199277,80303
1130 LEHIGH ST,BOULDER,Colorado,39.97838,-105.259774,80305
1301 30TH ST,BOULDER,Colorado,40.009596,-105.253918,80303
298 ARAPAHOE AVE,BOULDER,Colorado,40.012343,-105.293878,80302
301 PEARL ST,BOULDER,Colorado,40.015626,-105.291927,80302
3290 EUCLID AVE,BOULDER,Colorado,40.005025,-105.251075,80303
6590 FINLEY PL,BOULDER,Colorado,40.070828,-105.199531,80301
6200 HABITAT DR,BOULDER,Colorado,40.0607,-105.208645,80301
4995 CORNWALL DR,BOULDER,Colorado,40.0652,-105.171456,80301
4487 DRIFTWOOD PL,BOULDER,Colorado,40.056001,-105.206189,80301
2890 DARTMOUTH AVE,BOULDER,Colorado,39.988835,-105.257696,80305
3205 EMERSON AVE,BOULDER,Colorado,39.975332,-105.254527,80305
747 POPLAR AVE,BOULDER,Colorado,40.047046,-105.287666,80304
4080 WELSH PL,BOULDER,Colorado,40.049206,-105.257598,80301
1025 ADAMS CIR,BOULDER,Colorado,40.005586,-105.255703,80303
720 17TH ST,BOULDER,Colorado,40.000561,-105.270932,80302
2238 CANYON BLVD,BOULDER,Colorado,40.017107,-105.265157,80302
4685 MACKY WAY,BOULDER,Colorado,39.976467,-105.238258,80305
519 LOST ANGEL RD,BOULDER,Colorado,40.014192,-105.385164,80302
150 MANHATTAN DR,BOULDER,Colorado,39.989785,-105.227361,80303
740 S 43RD ST,BOULDER,Colorado,39.982848,-105.244253,80305
870 ORMAN DR,BOULDER,Colorado,40.004536,-105.238229,80303
1464 KENNEDY CT,BOULDER,Colorado,40.01215,-105.231876,80303
160 S LASHLEY LN,BOULDER,Colorado,39.990639,-105.256456,80305
1000 OAKDALE PL,BOULDER,Colorado,40.044772,-105.284346,80304
7014 INDIAN PEAKS TRL,BOULDER,Colorado,40.061444,-105.189517,80301
4500 19TH ST LOT 360,BOULDER,Colorado,40.055675,-105.275504,80304
1019 E MOORHEAD CIR,BOULDER,Colorado,39.980095,-105.236506,80305
9020 FARRAND HALL,BOULDER,Colorado,40.049468,-105.201421,80301
3350 30TH ST,BOULDER,Colorado,40.035788,-105.253209,80301
7575 PANORAMA DR,BOULDER,Colorado,39.974985,-105.176722,80303
5511 STONEWALL PL,BOULDER,Colorado,40.001619,-105.225008,80303
1520 CHAMBERS DR,BOULDER,Colorado,39.972998,-105.240333,80305
3255 15TH ST,BOULDER,Colorado,40.034351,-105.278585,80304
4362 PEACH CT,BOULDER,Colorado,40.054229,-105.251339,80301
1026 15TH ST,BOULDER,Colorado,40.006046,-105.273425,80302
1245 EAST RIDGE AVE,BOULDER,Colorado,40.008976,-105.254579,80303
4685 HARRISON AVE,BOULDER,Colorado,40.009982,-105.237795,80303
6701 JAY RD,BOULDER,Colorado,40.051507,-105.197363,80301
1011 RAINBOW WAY,BOULDER,Colorado,40.005106,-105.203666,80303
425 S 43RD ST,BOULDER,Colorado,39.986765,-105.244813,80305
32 PIMA CT,BOULDER,Colorado,39.987784,-105.23451,80303
126 MINEOLA CT,BOULDER,Colorado,39.988482,-105.221772,80303
7436 AUGUSTA DR,BOULDER,Colorado,40.070636,-105.180511,80301
300 19TH ST,BOULDER,Colorado,39.996342,-105.268458,80302
3325 DOVER DR,BOULDER,Colorado,39.987271,-105.253576,80305
653 FURMAN WAY,BOULDER,Colorado,39.982942,-105.26618,80305
962 10TH ST,BOULDER,Colorado,40.004822,-105.279553,80302
911 CRESCENT DR,BOULDER,Colorado,40.003779,-105.231395,80303
2760 DARLEY AVE,BOULDER,Colorado,39.978551,-105.259203,80305
315 BELLEVUE DR,BOULDER,Colorado,39.996537,-105.276307,80302
7856 ARLINGTON DR,BOULDER,Colorado,40.006477,-105.170046,80303
4885 EISENHOWER DR,BOULDER,Colorado,40.012746,-105.233759,80303
6244 SIMMONS DR,BOULDER,Colorado,40.00549,-105.207675,80303
5855 S ORCHARD CREEK CIR,BOULDER,Colorado,40.055518,-105.217786,80301
2760 ILIFF ST,BOULDER,Colorado,39.970886,-105.257485,80305
3288 SENTINEL DR,BOULDER,Colorado,40.034266,-105.239701,80301
525 ORD DR,BOULDER,Colorado,39.996657,-105.169814,80303
3380 FOLSOM ST,BOULDER,Colorado,40.036045,-105.26307,80304
3440 COLORADO AVE,BOULDER,Colorado,40.007071,-105.249681,80303
3867 ARBOL CT,BOULDER,Colorado,40.045395,-105.252456,80301
2880 KALMIA AVE,BOULDER,Colorado,40.038268,-105.256035,80301
930 QUINCE AVE,BOULDER,Colorado,40.047725,-105.285295,80304
3003 VALMONT RD LOT 129,BOULDER,Colorado,40.031073,-105.252567,80301
2832 BROADWAY,BOULDER,Colorado,40.027559,-105.281867,80304
3970 COLORADO AVE,BOULDER,Colorado,40.007023,-105.244509,80303
935 16TH ST,BOULDER,Colorado,40.004473,-105.272914,80302
3025 ASH AVE,BOULDER,Colorado,39.993251,-105.257844,80305
1020 14TH ST,BOULDER,Colorado,40.006043,-105.274657,80302
175 GOLD RUN RD,BOULDER,Colorado,40.050408,-105.373633,80302
4852 5TH ST,BOULDER,Colorado,40.063236,-105.288099,80304
4310 CLAY COMMONS CT,BOULDER,Colorado,40.000418,-105.23984,80303
1133 TIMBER LN,BOULDER,Colorado,40.04316,-105.308918,80304
566 DAKOTA BLVD,BOULDER,Colorado,40.065157,-105.287645,80304
725 35TH ST,BOULDER,Colorado,40.000775,-105.248698,80303
1842 SPRUCE ST,BOULDER,Colorado,40.020478,-105.271283,80302
4867 VALHALLA DR,BOULDER,Colorado,40.071009,-105.240729,80301
1000 AURORA AVE,BOULDER,Colorado,40.003529,-105.279638,80302
210 S 39TH ST,BOULDER,Colorado,39.989825,-105.246663,80305
3355 STANFORD AVE,BOULDER,Colorado,39.985678,-105.253943,80305
2750 47TH ST,BOULDER,Colorado,40.026685,-105.243152,80301
2049 YARMOUTH AVE,BOULDER,Colorado,40.05923,-105.268855,80301
545 UNIVERSITY AVE,BOULDER,Colorado,40.01082,-105.288151,80302
2635 MAPLETON AVE LOT 11A,BOULDER,Colorado,40.026086,-105.261821,80304
4205 GILPIN DR,BOULDER,Colorado,40.001376,-105.241358,80303
4993 CLUBHOUSE CT,BOULDER,Colorado,40.065204,-105.183333,80301
3003 VALMONT RD LOT 223,BOULDER,Colorado,40.031073,-105.252567,80301
4430 BROADWAY,BOULDER,Colorado,40.055089,-105.2818,80304
3661 CHASE CT,BOULDER,Colorado,39.992763,-105.248445,80305
606 LINDEN PARK DR,BOULDER,Colorado,40.041328,-105.288924,80304
1023 FOREST AVE,BOULDER,Colorado,40.033112,-105.283666,80304
7262 OLD POST RD,BOULDER,Colorado,40.059883,-105.183594,80301
4495 ABERDEEN PL,BOULDER,Colorado,40.0564,-105.176472,80301
1011 RAINBOW WAY LOWR LOWR,BOULDER,Colorado,40.005106,-105.203666,80303
1478 GREENBRIAR BLVD,BOULDER,Colorado,39.972572,-105.239968,80305
4465 MARTIN DR,BOULDER,Colorado,39.987822,-105.242369,80305
3064 9TH ST,BOULDER,Colorado,40.030468,-105.285223,80304
2988 EAGLE WAY,BOULDER,Colorado,40.030928,-105.254488,80301
7132 BASELINE RD,BOULDER,Colorado,39.996767,-105.187049,80303
1555 BROADWAY,BOULDER,Colorado,40.012453,-105.278785,80302
2701 MAPLETON AVE,BOULDER,Colorado,40.025505,-105.260274,80304
923 7TH ST,BOULDER,Colorado,40.00423,-105.286353,80302
880 35TH ST,BOULDER,Colorado,40.003544,-105.248047,80303
5139 SUGARLOAF RD,BOULDER,Colorado,40.017982,-105.421802,80302
5299 CYPRESS DR,BOULDER,Colorado,40.001095,-105.227848,80303
670 WALDEN CIR,BOULDER,Colorado,39.983669,-105.235986,80305
4493 CANTERBURY DR,BOULDER,Colorado,40.056263,-105.174816,80301
1035 ROXWOOD LN,BOULDER,Colorado,40.006287,-105.22586,80303
1718 CANYON BLVD,BOULDER,Colorado,40.017048,-105.272179,80302
1545 48TH ST,BOULDER,Colorado,40.01356,-105.23508,80303
7912 ARAPAHOE,BOULDER,Colorado,40.013776,-105.167722,80303
3727 BARBADOS PL,BOULDER,Colorado,40.049994,-105.249995,80301
3401 ARAPAHOE AVE,BOULDER,Colorado,40.015888,-105.249335,80303
1945 KOHLER DR,BOULDER,Colorado,39.987443,-105.268858,80305
695 EMPORIA RD,BOULDER,Colorado,39.981702,-105.266619,80305
4777 10TH ST,BOULDER,Colorado,40.061427,-105.285282,80304
125 IROQUOIS DR,BOULDER,Colorado,39.98867,-105.228727,80303
2186 KINCAID PL,BOULDER,Colorado,40.038458,-105.2689,80304
5113 WILLIAMS FORK TRL,BOULDER,Colorado,40.06775,-105.199503,80301
1800 WALNUT ST,BOULDER,Colorado,40.018349,-105.27174,80302
4676 INGRAM CT,BOULDER,Colorado,39.986851,-105.23984,80305
1074 ROSE HILL DR,BOULDER,Colorado,40.006912,-105.285248,80302
4300 CHIPPEWA DR,BOULDER,Colorado,39.996933,-105.239739,80303
1560 LEHIGH ST,BOULDER,Colorado,39.972442,-105.259776,80305
5000 BUTTE ST LOT 293,BOULDER,Colorado,40.033979,-105.236179,80301
2636 GRAPEWOOD LN,BOULDER,Colorado,40.034115,-105.262402,80304
3174 FOUNDRY PL,BOULDER,Colorado,40.026574,-105.252232,80301
3190 STANFORD AVE,BOULDER,Colorado,39.985645,-105.255277,80305
2435 GLENWOOD DR,BOULDER,Colorado,40.033389,-105.265185,80304
1221 LEFTHAND CANYON DR,BOULDER,Colorado,40.12711,-105.301488,80302
4450 DRIFTWOOD PL,BOULDER,Colorado,40.055178,-105.204644,80301
276 SPRUCE ST,BOULDER,Colorado,40.016,-105.292861,80302
845 GRANT PL,BOULDER,Colorado,40.002709,-105.28348,80302
735 MAPLETON AVE,BOULDER,Colorado,40.020909,-105.28672,80304
2330 GLENWOOD DR,BOULDER,Colorado,40.032975,-105.266415,80304
1788 TIMBER LN,BOULDER,Colorado,40.046436,-105.315748,80304
1457 OLD TALE RD,BOULDER,Colorado,40.01238,-105.216151,80303
2160 GODDARD PL,BOULDER,Colorado,39.982068,-105.265189,80305
3365 DOVER DR,BOULDER,Colorado,39.987331,-105.253293,80305
2635 MAPLETON AVE LOT 89,BOULDER,Colorado,40.026086,-105.261821,80304
2635 MAPLETON AVE,BOULDER,Colorado,40.026086,-105.261821,80304
3875 15TH ST,BOULDER,Colorado,40.044884,-105.278993,80304
759 19TH ST,BOULDER,Colorado,40.001209,-105.269188,80302
1029 BROADWAY,BOULDER,Colorado,40.006233,-105.273426,80302
4901 EUCLID AVE,BOULDER,Colorado,40.005866,-105.231399,80303
2013 MAPLETON AVE,BOULDER,Colorado,40.023415,-105.27044,80304
2013 MAPLETON AVE FRNT,BOULDER,Colorado,40.023415,-105.27044,80304
647 NORTH ST,BOULDER,Colorado,40.024861,-105.287445,80304
2343 9TH ST,BOULDER,Colorado,40.021409,-105.285113,80304
1705 MARINE ST,BOULDER,Colorado,40.01391,-105.272343,80302
2020 FLORAL DR,BOULDER,Colorado,40.031147,-105.271421,80304
766 GRANT PL,BOULDER,Colorado,40.001156,-105.282806,80302
1536 EASY RIDER LN,BOULDER,Colorado,40.060102,-105.278167,80304
260 BRISTLECONE WAY,BOULDER,Colorado,40.040956,-105.3231,80304
2023 WALNUT ST,BOULDER,Colorado,40.019455,-105.268814,80302
6803 JAY RD,BOULDER,Colorado,40.052358,-105.194257,80301
3767 TALISMAN PL,BOULDER,Colorado,40.035555,-105.246342,80301
4595 14TH ST,BOULDER,Colorado,40.057944,-105.280223,80304
2911 7TH ST,BOULDER,Colorado,40.028269,-105.288292,80304
801 18TH ST,BOULDER,Colorado,40.002026,-105.270431,80302
3460 EVERETT DR,BOULDER,Colorado,39.973519,-105.252623,80305
1082 BEREA DR,BOULDER,Colorado,39.978478,-105.248576,80305
1025 PARAGON DR,BOULDER,Colorado,39.978666,-105.181446,80303
5229 PIERRE ST,BOULDER,Colorado,40.0678,-105.28752,80304
4721 MCKINLEY DR,BOULDER,Colorado,40.011922,-105.236116,80303
740 1/2 SPRUCE ST,BOULDER,Colorado,40.017475,-105.285781,80302
1407 KENNEDY CT,BOULDER,Colorado,40.011378,-105.23224,80303
510 LOGAN MILL RD,BOULDER,Colorado,40.039437,-105.369213,80302
1700 17TH ST,BOULDER,Colorado,40.016421,-105.272334,80302
3000 15TH ST,BOULDER,Colorado,40.030287,-105.276203,80304
1107 12TH ST,BOULDER,Colorado,40.007656,-105.277846,80302
7625 SOUTH BOULDER RD,BOULDER,Colorado,39.987232,-105.174728,80303
4511 STARBOARD CT,BOULDER,Colorado,40.058235,-105.203404,80301
4059 DAWN CT,BOULDER,Colorado,40.048653,-105.260322,80304
290 HOPI PL,BOULDER,Colorado,39.993817,-105.242569,80303
2961 SHADY HOLLOW E,BOULDER,Colorado,40.028511,-105.260138,80304
520 S 46TH ST,BOULDER,Colorado,39.985473,-105.24141,80305
984 13TH ST,BOULDER,Colorado,40.005279,-105.27588,80302
3004 BROADWAY,BOULDER,Colorado,40.029423,-105.281723,80304
3858 CAMPO CT,BOULDER,Colorado,40.045102,-105.250738,80301
1500 TAMARACK AVE,BOULDER,Colorado,40.051421,-105.278639,80304
1504 PINE ST,BOULDER,Colorado,40.020491,-105.27644,80302
704 MOHAWK DR,BOULDER,Colorado,40.001218,-105.236029,80303
4500 19TH ST LOT 430,BOULDER,Colorado,40.055675,-105.275504,80304
311 DIME RD,BOULDER,Colorado,40.036457,-105.374456,80302
765 32ND ST,BOULDER,Colorado,40.001577,-105.251477,80303
355 PARAGON DR,BOULDER,Colorado,39.984464,-105.174817,80303
2201 PEARL ST,BOULDER,Colorado,40.021021,-105.266736,80302
465 S 39TH ST,BOULDER,Colorado,39.986035,-105.248524,80305
4072 BEAR CREEK APTS B,BOULDER,Colorado,39.770095,-105.266409,80403
5122 WILLIAMS FORK TRL,BOULDER,Colorado,40.065849,-105.201048,80301
2318 PINE ST,BOULDER,Colorado,40.02274,-105.265569,80302
59 HALLETT HALL,BOULDER,Colorado,40.049468,-105.201421,80301
2554 LINDEN DR,BOULDER,Colorado,40.051125,-105.31713,80304
5000 BUTTE ST LOT 48,BOULDER,Colorado,40.033979,-105.236179,80301
3135 ARNETT ST,BOULDER,Colorado,40.031728,-105.26237,80304
4016 N 63RD ST,BOULDER,Colorado,40.04764,-105.20669,80301
1197 ORANGE PL,BOULDER,Colorado,40.04444,-105.282334,80304
2550 WOODSTOCK PL,BOULDER,Colorado,39.976074,-105.26083,80305
3859 PASEO DEL PRADO,BOULDER,Colorado,40.04482,-105.257313,80301
2102 GROVE CIR W,BOULDER,Colorado,40.015274,-105.267659,80302
2345 SPRUCE ST,BOULDER,Colorado,40.022418,-105.264916,80302
205 30TH ST,BOULDER,Colorado,39.994666,-105.257455,80305
1503 BRADLEY DR,BOULDER,Colorado,39.972531,-105.238968,80305
2360 DENNISON LN,BOULDER,Colorado,39.98415,-105.262119,80305
2965 VALMONT RD,BOULDER,Colorado,40.029977,-105.255184,80301
2140 KALMIA CIR,BOULDER,Colorado,40.039274,-105.269963,80304
2875 COUNTY RD 67,BOULDER,Colorado,39.933514,-105.27123,80303
7450 VALMONT RD,BOULDER,Colorado,40.033114,-105.179855,80301
2600 TAFT DR,BOULDER,Colorado,40.010825,-105.259812,80302
3061 FOOTHILLS RANCH DR,BOULDER,Colorado,40.151931,-105.283091,80302
3192 11TH ST,BOULDER,Colorado,40.032685,-105.282965,80304
1535 PINE ST,BOULDER,Colorado,40.021206,-105.275953,80302
2370 PANORAMA AVE,BOULDER,Colorado,40.026088,-105.265536,80304
2297 HOLYOKE DR,BOULDER,Colorado,39.980066,-105.264977,80305
3810 HAUPTMAN CT,BOULDER,Colorado,40.043985,-105.251176,80301
3978 ESCUELA CT,BOULDER,Colorado,40.047195,-105.249205,80301
254 PINE TREE LN,BOULDER,Colorado,40.045653,-105.319558,80304
2225 BLUEBELL AVE,BOULDER,Colorado,39.997527,-105.26397,80302
4160 26TH ST,BOULDER,Colorado,40.050313,-105.262997,80304
710 GRAPE AVE,BOULDER,Colorado,40.033816,-105.287573,80304
8264 KINCROSS DR,BOULDER,Colorado,40.05863,-105.159868,80301
2851 SPRINGDALE LN,BOULDER,Colorado,40.009307,-105.25714,80303
2018 COLUMBINE AVE,BOULDER,Colorado,39.998883,-105.267189,80302
959 MARINE ST,BOULDER,Colorado,40.012564,-105.281211,80302
1015 PENNSYLVANIA AVE,BOULDER,Colorado,40.008921,-105.279418,80302
445 LIPAN WAY,BOULDER,Colorado,39.994621,-105.240214,80303
2105 WALNUT ST,BOULDER,Colorado,40.019753,-105.2677,80302
4557 APPLE WAY,BOULDER,Colorado,40.052446,-105.24781,80301
3455 ASH AVE,BOULDER,Colorado,39.994766,-105.252168,80305
3465 ASH AVE,BOULDER,Colorado,39.994867,-105.252072,80305
4074 BEAR CREEK APTS B,BOULDER,Colorado,39.770037,-105.266365,80403
715 AURORA AVE,BOULDER,Colorado,40.00396,-105.285016,80302
635 WALDEN CIR,BOULDER,Colorado,39.984345,-105.236263,80305
1050 TANTRA PARK CIR,BOULDER,Colorado,39.979439,-105.239294,80305
3335 MOORHEAD AVE,BOULDER,Colorado,39.996308,-105.252749,80305
3867 CAMPO CT,BOULDER,Colorado,40.045725,-105.251153,80301
1017 LARAMIE BLVD,BOULDER,Colorado,40.065802,-105.284216,80304
665 MANHATTAN DR,BOULDER,Colorado,39.999013,-105.230091,80303
7752 ESSEX PL,BOULDER,Colorado,40.060056,-105.171453,80301
2667 SHERWOOD CIR,BOULDER,Colorado,40.039437,-105.26157,80304
3747 TALISMAN PL,BOULDER,Colorado,40.03549,-105.246625,80301
1600 MARIPOSA AVE,BOULDER,Colorado,39.997972,-105.272175,80302
4603 GREYLOCK ST,BOULDER,Colorado,40.058656,-105.168635,80301
2291 PLACID DR,BOULDER,Colorado,40.021762,-105.144078,80301
660 S 40TH ST,BOULDER,Colorado,39.983604,-105.247182,80305
1225 EDINBORO DR,BOULDER,Colorado,39.977219,-105.253218,80305
2927 BROADWAY,BOULDER,Colorado,40.02837,-105.282382,80304
635 MOHAWK DR,BOULDER,Colorado,39.99878,-105.237008,80303
5932 GUNBARREL AVE,BOULDER,Colorado,40.060809,-105.214741,80301
3055 CORONA TRL,BOULDER,Colorado,40.035786,-105.250796,80301
295 GREEN ROCK DR,BOULDER,Colorado,40.018574,-105.292506,80302
4887 OLD POST CIR,BOULDER,Colorado,40.063595,-105.180387,80301
1405 ALPINE AVE,BOULDER,Colorado,40.025726,-105.278182,80304
717 COUNTY RD 83,BOULDER,Colorado,40.064861,-105.367967,80302
3787 TALISMAN PL,BOULDER,Colorado,40.035241,-105.246268,80301
3841 FREDERICKS CT,BOULDER,Colorado,40.044371,-105.252267,80301
4606 FIELD CT,BOULDER,Colorado,40.058626,-105.184195,80301
5205 WATERSTONE DR,BOULDER,Colorado,40.058885,-105.23131,80301
949 MARINE ST,BOULDER,Colorado,40.012502,-105.281884,80302
5222 WATERSTONE DR,BOULDER,Colorado,40.059422,-105.230248,80301
1707 YARMOUTH AVE,BOULDER,Colorado,40.058408,-105.276061,80304
4140 AURORA AVE,BOULDER,Colorado,40.003908,-105.241779,80303
3110 FREMONT ST,BOULDER,Colorado,40.031691,-105.264793,80304
1440 OAK CIR,BOULDER,Colorado,40.04486,-105.279501,80304
2975 COLLEGE AVE,BOULDER,Colorado,40.007109,-105.254624,80303
2625 TABRIZ PL,BOULDER,Colorado,40.035928,-105.262086,80304
606 DEWEY AVE,BOULDER,Colorado,40.023503,-105.288176,80304
2500 N 75TH ST,BOULDER,Colorado,40.02373,-105.168713,80301
1311 YELLOW PINE AVE,BOULDER,Colorado,40.05969,-105.280822,80304
310 S 38TH ST,BOULDER,Colorado,39.988436,-105.248619,80305
305 FOX DR,BOULDER,Colorado,39.99512,-105.244284,80303
4590 MARTIN DR,BOULDER,Colorado,39.986043,-105.241403,80305
6144 HABITAT DR,BOULDER,Colorado,40.060218,-105.210146,80301
1116 6TH ST,BOULDER,Colorado,40.007852,-105.286941,80302
7850 4 MILE CANYON DR,BOULDER,Colorado,40.698949,-105.003133,80549
200 BROOK PL,BOULDER,Colorado,39.995403,-105.269053,80302
4359 VINCA CT,BOULDER,Colorado,40.053506,-105.26635,80304
7351 WINDSOR DR,BOULDER,Colorado,40.067629,-105.18317,80301
1035 ADAMS CIR,BOULDER,Colorado,40.005584,-105.254897,80303
4611 CHATHAM PL,BOULDER,Colorado,40.058435,-105.174062,80301
2133 CANYON BLVD,BOULDER,Colorado,40.017556,-105.266877,80302
47 WILLARD HALL,BOULDER,Colorado,40.049468,-105.201421,80301
2236 NICHOLL ST,BOULDER,Colorado,40.029208,-105.269293,80304
4875 WHITE ROCK CIR,BOULDER,Colorado,40.060514,-105.212575,80301
3050 CORONA TRL,BOULDER,Colorado,40.035735,-105.250732,80301
2111 MAPLETON AVE,BOULDER,Colorado,40.023623,-105.268916,80304
1606 PINE ST,BOULDER,Colorado,40.020811,-105.275152,80302
3220 47TH ST,BOULDER,Colorado,40.032428,-105.244,80301
4647 18TH ST,BOULDER,Colorado,40.05882,-105.275601,80304
1314 SANDSTONE CT,BOULDER,Colorado,39.975313,-105.260413,80305
910 28TH ST,BOULDER,Colorado,40.004474,-105.257903,80303
1350 YARMOUTH AVE,BOULDER,Colorado,40.058054,-105.280494,80304
3841 PASEO DEL PRADO,BOULDER,Colorado,40.044406,-105.257209,80301
885 HARTFORD DR,BOULDER,Colorado,39.981142,-105.256682,80305
6968 SOUTH BOULDER RD,BOULDER,Colorado,39.985182,-105.191155,80303
1555 BRADLEY DR,BOULDER,Colorado,39.971852,-105.239178,80305
4157 LONETREE CT,BOULDER,Colorado,40.050107,-105.247199,80301
7267 OLDE STAGE RD,BOULDER,Colorado,40.106672,-105.304257,80302
3007 10TH ST,BOULDER,Colorado,40.029442,-105.284718,80304
3167 BROADWAY,BOULDER,Colorado,40.032323,-105.282371,80304
1833 FOLSOM ST,BOULDER,Colorado,40.018415,-105.263808,80302
4830 TANGLEWOOD TRL,BOULDER,Colorado,40.06233,-105.178931,80301
4221 30TH ST,BOULDER,Colorado,40.051401,-105.25543,80301
49 KITTREDGE WEST HALL,BOULDER,Colorado,40.049468,-105.201421,80301
4840 THUNDERBIRD DR,BOULDER,Colorado,39.99539,-105.234004,80303
3685 CAYMAN PL,BOULDER,Colorado,40.050804,-105.250215,80301
5106 BUCKINGHAM RD,BOULDER,Colorado,40.066583,-105.179702,80301
2865 SUNDOWN LN,BOULDER,Colorado,40.01013,-105.257135,80303
4722 16TH ST,BOULDER,Colorado,40.060696,-105.277295,80304
2810 1/2 CORDRY CT,BOULDER,Colorado,40.011593,-105.256539,80303
5693 CASCADE PL,BOULDER,Colorado,40.00056,-105.221423,80303
1152 ORANGE PL,BOULDER,Colorado,40.043883,-105.282667,80304
2510 TAFT DR,BOULDER,Colorado,40.010161,-105.262646,80302
440 ERIE DR,BOULDER,Colorado,39.997069,-105.244693,80303
3405 ENDICOTT DR,BOULDER,Colorado,39.97462,-105.252843,80305
960 6TH ST,BOULDER,Colorado,40.004664,-105.286368,80302
66 NIGHTSHADE DR,BOULDER,Colorado,40.014593,-105.449378,80302
2119 SPRUCE ST,BOULDER,Colorado,40.021819,-105.267948,80302
4575 BEACHCOMBER CT,BOULDER,Colorado,40.056977,-105.206083,80301
2415 SPRUCE ST,BOULDER,Colorado,40.022526,-105.264379,80302
4840 MEREDITH WAY,BOULDER,Colorado,40.013497,-105.234106,80303
1590 EISENHOWER DR,BOULDER,Colorado,40.014072,-105.231391,80303
546 LOCUST PL,BOULDER,Colorado,40.053144,-105.290032,80304
315 S 42ND ST,BOULDER,Colorado,39.988481,-105.245167,80305
4309 N 51ST ST,BOULDER,Colorado,40.053058,-105.235444,80301
2026 4 MILE CANYON DR,BOULDER,Colorado,40.405521,-104.683891,80631
4695 16TH ST,BOULDER,Colorado,40.060021,-105.277702,80304
2425 BALSAM DR,BOULDER,Colorado,40.027195,-105.264952,80304
5843 RUSTIC KNOLLS DR,BOULDER,Colorado,40.041221,-105.217257,80301
2461 TAMARACK AVE,BOULDER,Colorado,40.052186,-105.265009,80304
7345 BUCKINGHAM CT,BOULDER,Colorado,40.06668,-105.181511,80301
1611 PINE ST,BOULDER,Colorado,40.021363,-105.275178,80302
4605 NASSAU PL,BOULDER,Colorado,40.049061,-105.244999,80301
820 18TH ST,BOULDER,Colorado,40.002503,-105.269697,80302
2190 TAMARACK AVE,BOULDER,Colorado,40.0517,-105.268351,80304
5276 PENNSYLVANIA AVE,BOULDER,Colorado,40.006254,-105.230631,80303
890 MCINTIRE ST,BOULDER,Colorado,40.003916,-105.233782,80303
1559 BRADLEY DR,BOULDER,Colorado,39.971949,-105.239148,80305
200 PAWNEE DR,BOULDER,Colorado,39.991496,-105.236029,80303
1422 KINGWOOD PL,BOULDER,Colorado,40.039742,-105.279469,80304
1150 COLLEGE AVE,BOULDER,Colorado,40.007018,-105.277842,80302
2850 E COLLEGE AVE,BOULDER,Colorado,40.006828,-105.257317,80303
949 BROADWAY,BOULDER,Colorado,40.004391,-105.270048,80302
1140 POPLAR AVE,BOULDER,Colorado,40.046187,-105.282648,80304
805 16TH ST,BOULDER,Colorado,40.002047,-105.272895,80302
525 MANHATTAN DR,BOULDER,Colorado,39.99675,-105.230245,80303
721 9TH ST,BOULDER,Colorado,40.001057,-105.282299,80302
955 UNIVERSITY AVE,BOULDER,Colorado,40.010835,-105.280473,80302
2521 BROADWAY,BOULDER,Colorado,40.023784,-105.282425,80304
1075 11TH ST,BOULDER,Colorado,40.006793,-105.279058,80302
2790 VASSAR DR,BOULDER,Colorado,39.984982,-105.258206,80305
704 SPRUCE ST,BOULDER,Colorado,40.017292,-105.286677,80302
2655 MAPLETON AVE,BOULDER,Colorado,40.025613,-105.260669,80304
120 S 36TH ST,BOULDER,Colorado,39.99135,-105.250898,80305
1897 JOLIET WAY,BOULDER,Colorado,39.967661,-105.255361,80305
3936 BOSQUE CT,BOULDER,Colorado,40.046548,-105.251975,80301
1632 YELLOW PINE AVE,BOULDER,Colorado,40.060005,-105.277204,80304
2689 JUNIPER AVE,BOULDER,Colorado,40.038125,-105.26095,80304
627 WALDEN CIR,BOULDER,Colorado,39.984777,-105.236824,80305
5535 MESA TOP CT,BOULDER,Colorado,40.07513,-105.197536,80301
2230 WALNUT ST,BOULDER,Colorado,40.019613,-105.265511,80302
1600 BRADLEY CT,BOULDER,Colorado,39.972559,-105.238523,80305
155 SHOSHONE CT,BOULDER,Colorado,39.989096,-105.230247,80303
5206 GALLATIN PL,BOULDER,Colorado,40.008903,-105.22983,80303
5505 VALMONT RD LOT 253,BOULDER,Colorado,40.034299,-105.223092,80301
3871 ARBOL CT,BOULDER,Colorado,40.045118,-105.252789,80301
1080 14TH ST,BOULDER,Colorado,40.006828,-105.274664,80302
3970 ESCUELA CT,BOULDER,Colorado,40.047008,-105.249201,80301
418 LEE HILL DR,BOULDER,Colorado,40.062745,-105.29056,80302
