address,city,state,Zip,Latitude,Longitude
1333 UNIVERSITY AVE,BOULDER,Colorado,80302,40.010846,-105.275199
350 ARAPAHOE AVE,BOULDER,Colorado,80302,40.012139,-105.292807
1165 10TH ST,BOULDER,Colorado,80302,40.008529,-105.280294
2867 SPRINGDALE LN,BOULDER,Colorado,80303,40.00931,-105.256693
4663 16TH ST,BOULDER,Colorado,80304,40.059404,-105.277919
1 ARNETT HALL,BOULDER,Colorado,80301,40.049468,-105.201421
7097 JAY RD,BOULDER,Colorado,80301,40.051147,-105.188384
5087 MERRITT DR,BOULDER,Colorado,80303,40.012666,-105.231075
720 PEAKVIEW RD,BOULDER,Colorado,80302,40.095664,-105.325386
395 PINE BROOK RD,BOULDER,Colorado,80304,40.057186,-105.317609
830 20TH ST,BOULDER,Colorado,80302,40.002532,-105.267356
4866 FRANKLIN DR,BOULDER,Colorado,80301,40.031883,-105.240572
975 PLEASANT ST,BOULDER,Colorado,80302,40.009742,-105.28028
1300 30TH ST,BOULDER,Colorado,80303,40.009274,-105.253324
920 MARINE ST,BOULDER,Colorado,80302,40.011785,-105.282368
6125 HABITAT DR,BOULDER,Colorado,80301,40.061148,-105.210808
3601 ARAPAHOE AVE,BOULDER,Colorado,80303,40.015076,-105.247502
1841 19TH ST,BOULDER,Colorado,80302,40.018057,-105.270695
4595 LAGUNA PL,BOULDER,Colorado,80303,39.998328,-105.236785
424 S LASHLEY LN,BOULDER,Colorado,80305,39.988541,-105.253439
2133 5TH ST,BOULDER,Colorado,80302,40.017885,-105.29023
1459 WHITE HAWK RANCH DR,BOULDER,Colorado,80303,40.013143,-105.142929
2605 BUCKINGHAM HALL,BOULDER,Colorado,80301,40.049468,-105.201421
1878 4 MILE CANYON DR,BOULDER,Colorado,80631,40.430295,-104.708156
4820 THUNDERBIRD CIR,BOULDER,Colorado,80303,39.988668,-105.233714
1823 22ND ST,BOULDER,Colorado,80302,40.01819,-105.266722
905 MARINE ST,BOULDER,Colorado,80302,40.012166,-105.28285
7574 SPRING DR,BOULDER,Colorado,80303,39.977267,-105.175747
619 MARINE ST,BOULDER,Colorado,80302,40.01205,-105.286634
3035 ONEAL PKWY,BOULDER,Colorado,80301,40.03427,-105.252784
166 KELLY RD E,BOULDER,Colorado,80302,40.0127,-105.351873
490 ERIE DR,BOULDER,Colorado,80303,39.998051,-105.24445
1601 MARIPOSA AVE,BOULDER,Colorado,80302,39.998477,-105.272239
3150 LANE CT,BOULDER,Colorado,80305,39.971865,-105.254683
7034 INDIAN PEAKS TRL,BOULDER,Colorado,80301,40.061282,-105.187534
5354 MUIRFIELD CT,BOULDER,Colorado,80301,40.071859,-105.184763
4900 THUNDERBIRD DR,BOULDER,Colorado,80303,39.994827,-105.23277
474 LEONARDS RD,BOULDER,Colorado,80302,40.0363,-105.334337
1810 HILLSIDE RD,BOULDER,Colorado,80302,40.011322,-105.270727
980 ZAMIA AVE,BOULDER,Colorado,80304,40.060601,-105.284816
1520 WILDWOOD LN,BOULDER,Colorado,80305,39.974962,-105.26457
950 28TH ST,BOULDER,Colorado,80303,40.005621,-105.25754
4750 CARTER TRL,BOULDER,Colorado,80301,40.060937,-105.191274
2731 JUNIPER AVE,BOULDER,Colorado,80304,40.038112,-105.259913
4747 TABLE MESA DR,BOULDER,Colorado,80305,39.986183,-105.237114
6951 OLDE STAGE RD,BOULDER,Colorado,80302,40.100761,-105.303486
3960 GREENBRIAR BLVD,BOULDER,Colorado,80305,39.969472,-105.246965
1656 BEAR MOUNTAIN DR,BOULDER,Colorado,80305,39.971906,-105.263376
1155 MARINE ST,BOULDER,Colorado,80302,40.013042,-105.279037
4676 WHITE ROCK CIR,BOULDER,Colorado,80301,40.058474,-105.212948
3800 COLORADO AVE,BOULDER,Colorado,80303,40.006027,-105.24596
1831 22ND ST,BOULDER,Colorado,80302,40.018286,-105.266634
128 IROQUOIS DR,BOULDER,Colorado,80303,39.98883,-105.228151
3530 BERKLEY AVE,BOULDER,Colorado,80305,39.992549,-105.251479
3665 PAONIA ST,BOULDER,Colorado,80301,40.041902,-105.253543
4250 GRINNELL AVE,BOULDER,Colorado,80305,39.976621,-105.246931
1544 NORTH ST,BOULDER,Colorado,80304,40.024369,-105.276723
3275 APACHE RD,BOULDER,Colorado,80310,39.997265,-105.250782
3195 PEARL PKWY,BOULDER,Colorado,80301,40.024301,-105.250846
3977 BOSQUE CT,BOULDER,Colorado,80301,40.047181,-105.252699
2510 47th  st  unit c,BOULDER,Colorado,80301,40.025723,-105.243869
1444 FOLSOM ST,BOULDER,Colorado,80302,40.012304,-105.262577
4955 TESLA CIR,BOULDER,Colorado,80301,40.033001,-105.237384
190 IROQUOIS DR,BOULDER,Colorado,80303,39.990192,-105.228972
2795 ILIFF ST,BOULDER,Colorado,80305,39.971306,-105.25678
1782 GARLAND LN,BOULDER,Colorado,80304,40.033227,-105.273365
5295 N 51ST ST,BOULDER,Colorado,80301,40.070894,-105.235686
1002 MAPLETON AVE,BOULDER,Colorado,80304,40.020222,-105.283536
2800 KALMIA AVE,BOULDER,Colorado,80301,40.038139,-105.257332
1385 DREXEL ST,BOULDER,Colorado,80305,39.975487,-105.252335
308 ARAPAHOE AVE,BOULDER,Colorado,80302,40.010432,-105.295155
6715 LAKEVIEW DR,BOULDER,Colorado,80303,40.003553,-105.196908
169 N 76TH ST,BOULDER,Colorado,80303,39.988064,-105.176115
2225 WALNUT ST,BOULDER,Colorado,80302,40.020083,-105.265892
1530 KENDALL DR,BOULDER,Colorado,80305,39.972972,-105.258882
525 13TH ST,BOULDER,Colorado,80302,39.998489,-105.276506
1400 RIVERSIDE AVE,BOULDER,Colorado,80304,40.049847,-105.280136
1834 ARAPAHOE AVE,BOULDER,Colorado,80302,40.014363,-105.270757
2365 PANORAMA AVE,BOULDER,Colorado,80304,40.026511,-105.265847
182 CHEROKEE WAY,BOULDER,Colorado,80303,39.989957,-105.229901
3120 PEARL PKWY,BOULDER,Colorado,80301,40.022929,-105.251246
2950 BIXBY LN,BOULDER,Colorado,80303,40.00209,-105.254997
4871 BROADWAY,BOULDER,Colorado,80302,40.063108,-105.282855
1485 TOBYS LN,BOULDER,Colorado,80303,40.013148,-105.224483
2900 SHADOW CREEK DR,BOULDER,Colorado,80303,40.010011,-105.255724
77 PEAKVIEW RD,BOULDER,Colorado,80302,40.091149,-105.335228
3600 CONIFER CT,BOULDER,Colorado,80304,40.040155,-105.278369
1285 HARTFORD DR,BOULDER,Colorado,80305,39.976751,-105.255906
4748 ELDORADO SPRINGS DR,BOULDER,Colorado,80303,39.947542,-105.241992
244 VAQUERO DR,BOULDER,Colorado,80303,39.981791,-105.180515
4789 TANTRA DR,BOULDER,Colorado,80305,39.983037,-105.237495
1145 10TH ST,BOULDER,Colorado,80302,40.008171,-105.280294
2888 LOMA PL,BOULDER,Colorado,80301,40.041681,-105.255387
3030 ONEAL PKWY,BOULDER,Colorado,80301,40.033275,-105.252961
3344 16TH ST,BOULDER,Colorado,80304,40.035675,-105.27667
200 KIOWA PL,BOULDER,Colorado,80303,39.991856,-105.240836
1855 ATHENS ST,BOULDER,Colorado,80302,40.012913,-105.270861
940 S 46TH ST,BOULDER,Colorado,80305,39.980959,-105.241419
3285 MOORHEAD AVE,BOULDER,Colorado,80305,39.996631,-105.253307
833 19TH ST,BOULDER,Colorado,80302,40.002471,-105.269014
1526 SUNSET BLVD,BOULDER,Colorado,80304,40.023293,-105.276685
1130 MONROE DR,BOULDER,Colorado,80303,40.006369,-105.241715
4155 47TH ST,BOULDER,Colorado,80301,40.050272,-105.244728
4870 MEREDITH WAY,BOULDER,Colorado,80303,40.014177,-105.234181
2200 CANYON BLVD,BOULDER,Colorado,80302,40.017002,-105.26589
4860 MEREDITH WAY,BOULDER,Colorado,80303,40.013784,-105.23421
2031 GRANDVIEW AVE,BOULDER,Colorado,80302,40.012098,-105.268139
201 RIDGE RD,BOULDER,Colorado,80303,39.989883,-105.168356
3100 34TH ST,BOULDER,Colorado,80301,40.032164,-105.248702
1401 MARIPOSA AVE,BOULDER,Colorado,80302,39.998099,-105.274758
2207 BASELINE RD,BOULDER,Colorado,80302,40.000454,-105.264613
8756 STREAMCREST DR,BOULDER,Colorado,80302,40.132254,-105.286431
801 GILLASPIE DR,BOULDER,Colorado,80305,39.982355,-105.252235
660 TANTRA DR,BOULDER,Colorado,80305,39.983848,-105.238583
3580 CATALPA WAY,BOULDER,Colorado,80304,40.039718,-105.273399
4570 13TH ST,BOULDER,Colorado,80304,40.057338,-105.28053
1460 QUINCE AVE,BOULDER,Colorado,80304,40.047693,-105.279275
732 ITHACA DR,BOULDER,Colorado,80305,39.982639,-105.262494
560 MOHAWK DR,BOULDER,Colorado,80303,39.996979,-105.234153
9193 LIBBY HALL,BOULDER,Colorado,80301,40.049468,-105.201421
1645 PINE ST,BOULDER,Colorado,80302,40.021507,-105.274471
1545 HIGH ST,BOULDER,Colorado,80304,40.022714,-105.27637
5420 BASELINE RD,BOULDER,Colorado,80303,39.999748,-105.226842
1130 11TH ST,BOULDER,Colorado,80302,40.007908,-105.278339
1131 UNIVERSITY AVE,BOULDER,Colorado,80302,40.010836,-105.277918
1530 EISENHOWER DR,BOULDER,Colorado,80303,40.013171,-105.231612
5501 SPINE RD,BOULDER,Colorado,80301,40.074461,-105.202844
9032 TAHOE LN,BOULDER,Colorado,80301,40.018635,-105.14216
6219 RED HILL RD,BOULDER,Colorado,80302,40.087519,-105.30463
2856 HALLETT HALL,BOULDER,Colorado,80301,40.049468,-105.201421
900 JASMINE CIR,BOULDER,Colorado,80304,40.03803,-105.285135
6113 STEARNS WEST HALL,BOULDER,Colorado,80303,40.007341,-105.200197
2900 AURORA AVE,BOULDER,Colorado,80303,40.003581,-105.255764
1218 JAY ST,BOULDER,Colorado,80302,40.008757,-105.288168
5042 LEE HILL DR,BOULDER,Colorado,80302,40.092201,-105.347606
9 W COACH RD,BOULDER,Colorado,80302,40.06217,-105.327601
5 KITTREDGE CENTRAL HALL,BOULDER,Colorado,80301,40.049468,-105.201421
1580 KALMIA AVE,BOULDER,Colorado,80304,40.03889,-105.277638
850 W MOORHEAD CIR,BOULDER,Colorado,80305,39.981791,-105.238368
1920 VISTA DR,BOULDER,Colorado,80304,40.034468,-105.272152
3200 EASTMAN AVE,BOULDER,Colorado,80305,39.988867,-105.254159
3441 CRIPPLE CREEK SQ,BOULDER,Colorado,80305,39.966905,-105.252306
2800 AURORA AVE,BOULDER,Colorado,80303,40.003584,-105.258338
1850 FOLSOM ST,BOULDER,Colorado,80302,40.019379,-105.262531
2242 WALNUT ST,BOULDER,Colorado,80302,40.019654,-105.265302
2653 VALMONT RD,BOULDER,Colorado,80304,40.029392,-105.261298
6813 IDYLWILD CT,BOULDER,Colorado,80301,40.061315,-105.195141
2455 KENWOOD DR,BOULDER,Colorado,80305,39.988548,-105.26258
2638 GRAPEWOOD LN,BOULDER,Colorado,80304,40.03405,-105.262408
7391 BROCKWAY DR,BOULDER,Colorado,80303,39.990055,-105.180221
6168 FLAGSTAFF RD,BOULDER,Colorado,80302,39.973377,-105.339834
4563 BEACHCOMBER CT,BOULDER,Colorado,80301,40.057364,-105.205645
50 BENTHAVEN PL,BOULDER,Colorado,80305,39.973722,-105.262689
1043 PLEASANT ST,BOULDER,Colorado,80302,40.009672,-105.278914
2915 BASELINE RD,BOULDER,Colorado,80303,40.001439,-105.254596
1190 35TH ST,BOULDER,Colorado,80303,40.007099,-105.248037
1715 AURORA AVE,BOULDER,Colorado,80302,40.003918,-105.271066
2641 JUNIPER AVE,BOULDER,Colorado,80304,40.038142,-105.261754
1260 KALMIA AVE,BOULDER,Colorado,80304,40.038694,-105.281286
4575 14TH ST,BOULDER,Colorado,80304,40.057608,-105.280317
1553 LODGE LN,BOULDER,Colorado,80303,40.013583,-105.226288
415 KIOWA PL,BOULDER,Colorado,80303,39.99478,-105.240879
1040 9TH ST,BOULDER,Colorado,80302,40.006272,-105.281756
1128 PENNSYLVANIA AVE,BOULDER,Colorado,80302,40.00848,-105.277849
3953 PROMONTORY CT,BOULDER,Colorado,80304,40.047296,-105.293857
2160 VASSAR DR,BOULDER,Colorado,80305,39.984874,-105.264487
8218 WILLIAMS VILLAGE EAST HALL,BOULDER,Colorado,80301,40.049468,-105.201421
805 29TH ST,BOULDER,Colorado,80303,40.002595,-105.256486
320 S 38TH ST,BOULDER,Colorado,80305,39.988123,-105.248727
2121 CANYON BLVD,BOULDER,Colorado,80302,40.017866,-105.267543
935 PLEASANT ST,BOULDER,Colorado,80302,40.009738,-105.281306
2050 ATHENS ST,BOULDER,Colorado,80302,40.012282,-105.267797
710 36TH ST,BOULDER,Colorado,80303,40.000624,-105.247147
319 29TH ST,BOULDER,Colorado,80305,39.996858,-105.258015
3301 ARAPAHOE AVE,BOULDER,Colorado,80303,40.015289,-105.249314
30 SOUTH BOULDER CIR,BOULDER,Colorado,80303,39.986952,-105.228643
4567 SUNNYSIDE PL,BOULDER,Colorado,80301,40.050854,-105.247158
214 ARROYO CHICO,BOULDER,Colorado,80302,40.040543,-105.352418
970 MIAMI WAY,BOULDER,Colorado,80305,39.980043,-105.254725
985 16TH ST,BOULDER,Colorado,80302,40.005166,-105.27292
4834 W MOORHEAD CIR,BOULDER,Colorado,80305,39.978854,-105.23582
3485 MOORHEAD AVE,BOULDER,Colorado,80305,39.995123,-105.250697
994 TIMBER LN,BOULDER,Colorado,80304,40.04288,-105.310091
4680 TALBOT DR,BOULDER,Colorado,80303,40.001621,-105.237279
933 14TH ST,BOULDER,Colorado,80302,40.004454,-105.275368
3860 CAMPO CT,BOULDER,Colorado,80301,40.045232,-105.250517
4453 HAMILTON CT,BOULDER,Colorado,80305,39.988767,-105.24072
1574 NORTH ST,BOULDER,Colorado,80304,40.024447,-105.276191
1590 YAUPON AVE,BOULDER,Colorado,80304,40.059052,-105.277757
1350 20TH ST,BOULDER,Colorado,80302,40.012952,-105.268809
2675 ILIFF ST,BOULDER,Colorado,80305,39.971302,-105.25864
2807 SUNDOWN LN,BOULDER,Colorado,80303,40.010318,-105.2576
4791 WHITE ROCK CIR,BOULDER,Colorado,80301,40.060266,-105.214763
150 S 33RD ST,BOULDER,Colorado,80305,39.990722,-105.253684
1000 GRANDVIEW AVE,BOULDER,Colorado,80302,40.011276,-105.279781
6858 SOUTH BOULDER RD,BOULDER,Colorado,80303,39.986288,-105.192597
2831 ELLISON PL,BOULDER,Colorado,80304,40.02734,-105.277788
1245 EDINBORO DR,BOULDER,Colorado,80305,39.977027,-105.253218
3363 MADISON AVE,BOULDER,Colorado,80303,40.00635,-105.249991
2224 15TH ST,BOULDER,Colorado,80302,40.021373,-105.276653
3065 30TH ST,BOULDER,Colorado,80301,40.030162,-105.254101
5448 ILLINI WAY,BOULDER,Colorado,80303,39.987954,-105.2255
3333 ONEAL PKWY,BOULDER,Colorado,80301,40.034036,-105.249925
1450 HIGH ST,BOULDER,Colorado,80304,40.022268,-105.277537
890 11TH ST,BOULDER,Colorado,80302,40.003303,-105.27831
2475 LEE HILL DR,BOULDER,Colorado,80302,40.077568,-105.311855
4593 LEE HILL DR,BOULDER,Colorado,80302,40.090031,-105.338752
1570 POPLAR AVE,BOULDER,Colorado,80304,40.046811,-105.277504
1820 PEARL ST,BOULDER,Colorado,80302,40.019421,-105.27149
2424 5TH ST,BOULDER,Colorado,80304,40.021036,-105.289817
920 CRESCENT DR,BOULDER,Colorado,80303,40.00412,-105.230764
4527 ELDORADO SPRINGS DR,BOULDER,Colorado,80303,39.94404,-105.248445
1705 FOREST AVE,BOULDER,Colorado,80304,40.032956,-105.274859
3455 STANFORD AVE,BOULDER,Colorado,80305,39.985669,-105.253471
1605 UPLAND AVE,BOULDER,Colorado,80304,40.053245,-105.276677
3250 ONEAL CIR,BOULDER,Colorado,80301,40.034008,-105.251631
2015 GRAPE AVE,BOULDER,Colorado,80304,40.034435,-105.270128
2610 IRIS AVE,BOULDER,Colorado,80304,40.036185,-105.262745
5640 ARAPAHOE AVE,BOULDER,Colorado,80303,40.013806,-105.224148
957 ROXWOOD LN,BOULDER,Colorado,80303,40.004583,-105.225851
1525 KALMIA AVE,BOULDER,Colorado,80304,40.039289,-105.278553
4785 TANTRA DR,BOULDER,Colorado,80305,39.983036,-105.237535
3284 WRIGHT AVE,BOULDER,Colorado,80301,40.032976,-105.238376
2142 CANYON BLVD,BOULDER,Colorado,80302,40.016999,-105.266623
5476 WHITE PL,BOULDER,Colorado,80303,40.009272,-105.225944
350 PONCA PL,BOULDER,Colorado,80303,39.994322,-105.23432
315 28TH ST,BOULDER,Colorado,80305,39.996075,-105.259014
6657 DREW RANCH LN,BOULDER,Colorado,80301,40.075676,-105.199743
7670 FAIRVIEW RD,BOULDER,Colorado,80303,39.992625,-105.173714
2635 MAPLETON AVE LOT 25,BOULDER,Colorado,80304,40.026086,-105.261821
8444 STONERIDGE TER,BOULDER,Colorado,80302,40.126244,-105.29489
817 19TH ST,BOULDER,Colorado,80302,40.002296,-105.269193
1297 AIKINS WAY,BOULDER,Colorado,80305,39.975823,-105.2377
2707 VALMONT RD,BOULDER,Colorado,80304,40.030346,-105.260387
1000 MAXWELL AVE,BOULDER,Colorado,80304,40.02147,-105.283893
529 UNIVERSITY AVE,BOULDER,Colorado,80302,40.010592,-105.288514
4855 EDISON AVE,BOULDER,Colorado,80301,40.031267,-105.240745
1975 30TH ST,BOULDER,Colorado,80301,40.021084,-105.254099
4935 QUALLA DR,BOULDER,Colorado,80303,39.99164,-105.23283
3555 16TH ST,BOULDER,Colorado,80304,40.038525,-105.277654
956 TERRACE CIR N,BOULDER,Colorado,80302,40.067207,-105.284495
1043 KALMIA AVE,BOULDER,Colorado,80304,40.039871,-105.28373
6255 HABITAT DR,BOULDER,Colorado,80301,40.060986,-105.208213
800 28TH ST,BOULDER,Colorado,80303,40.002598,-105.257548
2985 COLLEGE AVE,BOULDER,Colorado,80303,40.007206,-105.254489
1135 11TH ST,BOULDER,Colorado,80302,40.008198,-105.279167
1055 ADAMS CIR,BOULDER,Colorado,80303,40.005051,-105.256579
4766 FRANKLIN DR,BOULDER,Colorado,80301,40.032792,-105.243017
2790 REGIS DR,BOULDER,Colorado,80305,39.985698,-105.258244
5546 SPINE RD,BOULDER,Colorado,80301,40.07499,-105.201748
4977 MOORHEAD AVE,BOULDER,Colorado,80305,39.987056,-105.237153
1707 22ND ST,BOULDER,Colorado,80302,40.016555,-105.266621
642 S 40TH ST,BOULDER,Colorado,80305,39.984017,-105.24705
1932 CANYON BLVD,BOULDER,Colorado,80302,40.016992,-105.269346
8494 STONERIDGE TER,BOULDER,Colorado,80302,40.128037,-105.294754
3580 SILVER PLUME CT,BOULDER,Colorado,80305,39.967497,-105.25091
5516 SPINE RD,BOULDER,Colorado,80301,40.074557,-105.201041
2505 YARROW CT,BOULDER,Colorado,80305,39.977128,-105.26114
5000 BUTTE ST LOT 258,BOULDER,Colorado,80301,40.033979,-105.236179
4638 JAMESTON ST,BOULDER,Colorado,80301,40.059138,-105.163665
782 COTTAGE LN,BOULDER,Colorado,80304,40.051823,-105.285646
2853 NEBRINA PL,BOULDER,Colorado,80301,40.04344,-105.256568
930 15TH ST,BOULDER,Colorado,80302,40.004322,-105.27341
3328 WRIGHT CIR,BOULDER,Colorado,80301,40.033385,-105.238875
838 NORTH ST,BOULDER,Colorado,80304,40.024434,-105.286039
5119 WILLIAMS FORK TRL,BOULDER,Colorado,80301,40.066828,-105.201942
5124 WILLIAMS FORK TRL,BOULDER,Colorado,80301,40.066385,-105.201802
3525 SILVER PLUME CT,BOULDER,Colorado,80305,39.967979,-105.251339
1010 12TH ST,BOULDER,Colorado,80302,40.005782,-105.277103
1850 22ND ST,BOULDER,Colorado,80302,40.019033,-105.265721
4711 W MOORHEAD CIR,BOULDER,Colorado,80305,39.979809,-105.237809
3355 EASTMAN AVE,BOULDER,Colorado,80305,39.989322,-105.253605
2121 MESA DR RM 337A,BOULDER,Colorado,80304,40.025241,-105.269507
1581 TIMBER LN,BOULDER,Colorado,80304,40.043922,-105.316525
6522 RED HILL RD,BOULDER,Colorado,80302,40.093253,-105.303323
400 MAPLETON AVE,BOULDER,Colorado,80304,40.02021,-105.291296
7163 OLD POST RD,BOULDER,Colorado,80301,40.058812,-105.186264
4245 REDWOOD PL,BOULDER,Colorado,80301,40.04909,-105.255503
4225 AURORA AVE,BOULDER,Colorado,80303,40.004661,-105.24097
1128 LINCOLN PL,BOULDER,Colorado,80302,40.008086,-105.280682
4131 WESTCLIFFE CT,BOULDER,Colorado,80301,40.049773,-105.248125
907 18TH ST,BOULDER,Colorado,80302,40.004172,-105.270206
3350 CAYMAN PL,BOULDER,Colorado,80301,40.050382,-105.251825
5985 BRANDYWINE CT,BOULDER,Colorado,80301,40.05811,-105.214276
2850 29TH ST,BOULDER,Colorado,80301,40.028384,-105.2554
1521 11TH ST,BOULDER,Colorado,80302,40.012036,-105.279527
4618 16TH ST,BOULDER,Colorado,80304,40.058615,-105.276892
700 LOCUST AVE,BOULDER,Colorado,80304,40.053589,-105.28825
6561 WILLIAMS VILLAGE EAST HALL,BOULDER,Colorado,80301,40.049468,-105.201421
2606 JUNIPER AVE,BOULDER,Colorado,80304,40.036772,-105.262934
935 11TH ST,BOULDER,Colorado,80302,40.004449,-105.279046
190 S 33RD ST,BOULDER,Colorado,80305,39.989968,-105.253686
3220 MADISON AVE,BOULDER,Colorado,80303,40.00571,-105.250916
1037 E MOORHEAD CIR,BOULDER,Colorado,80305,39.980068,-105.236101
2424 6TH ST,BOULDER,Colorado,80304,40.021016,-105.28828
3821 APACHE CT W,BOULDER,Colorado,80303,39.993627,-105.245754
4507 S HAMPTON CIR,BOULDER,Colorado,80301,40.046229,-105.245592
1060 KENT ST,BOULDER,Colorado,80303,40.006391,-105.253951
4322 SUNSHINE CANYON DR,BOULDER,Colorado,80302,40.052739,-105.33332
875 39TH ST,BOULDER,Colorado,80303,40.003359,-105.244929
1116 RIDGLEA WAY,BOULDER,Colorado,80303,40.006602,-105.200186
1090 30TH ST,BOULDER,Colorado,80303,40.005712,-105.252766
4998 MOORHEAD AVE,BOULDER,Colorado,80305,39.986216,-105.238547
1818 19TH ST,BOULDER,Colorado,80302,40.017715,-105.270104
3365 CHISHOLM TRL,BOULDER,Colorado,80301,40.035761,-105.252509
3850 PASEO DEL PRADO,BOULDER,Colorado,80301,40.044515,-105.256264
2600 9TH ST,BOULDER,Colorado,80304,40.024773,-105.285013
4803 BRANDON CREEK DR,BOULDER,Colorado,80301,40.062628,-105.195849
5505 VALMONT RD LOT 268,BOULDER,Colorado,80301,40.034299,-105.223092
4500 19TH ST LOT 322,BOULDER,Colorado,80304,40.055675,-105.275504
5000 BUTTE ST LOT 287,BOULDER,Colorado,80301,40.033979,-105.236179
921 TELLER CIR,BOULDER,Colorado,80303,40.004955,-105.234519
1440 ITHACA DR,BOULDER,Colorado,80305,39.974338,-105.256297
1592 KILKENNY ST,BOULDER,Colorado,80303,40.014299,-105.136093
4068 DAWN CT,BOULDER,Colorado,80304,40.048477,-105.259596
3064 ARNETT ST,BOULDER,Colorado,80304,40.030454,-105.261826
2121 MESA DR,BOULDER,Colorado,80304,40.025241,-105.269507
5588 PENNSYLVANIA AVE,BOULDER,Colorado,80303,40.005837,-105.22359
5860 S ORCHARD CREEK CIR,BOULDER,Colorado,80301,40.054733,-105.217656
3255 6TH ST,BOULDER,Colorado,80304,40.033703,-105.289457
411 VALLEY VIEW DR,BOULDER,Colorado,80304,40.024799,-105.29119
993 E MOORHEAD CIR,BOULDER,Colorado,80305,39.980661,-105.236529
3790 SILVER PLUME LN,BOULDER,Colorado,80305,39.968013,-105.248912
3115 REPPLIER ST,BOULDER,Colorado,80304,40.031654,-105.271036
1955 30TH ST,BOULDER,Colorado,80301,40.020773,-105.254133
760 S 45TH ST,BOULDER,Colorado,80305,39.982633,-105.24238
1645 7TH ST,BOULDER,Colorado,80302,40.012457,-105.285736
5533 FLAGSTAFF RD,BOULDER,Colorado,80302,39.977312,-105.325849
680 S LASHLEY LN,BOULDER,Colorado,80305,39.984442,-105.248314
4500 19TH ST LOT 619,BOULDER,Colorado,80304,40.055675,-105.275504
504 VALLEY VIEW DR,BOULDER,Colorado,80304,40.024429,-105.289826
381 ARROYO CHICO,BOULDER,Colorado,80302,40.043223,-105.353854
990 MORGAN DR,BOULDER,Colorado,80303,40.006203,-105.238443
2131 ARAPAHOE AVE,BOULDER,Colorado,80302,40.014864,-105.267135
815 NORTH ST,BOULDER,Colorado,80304,40.024864,-105.28649
4797 DORCHESTER CIR,BOULDER,Colorado,80301,40.061986,-105.172438
930 W MOORHEAD CIR,BOULDER,Colorado,80305,39.981213,-105.23898
5704 RIM ROCK CT,BOULDER,Colorado,80301,40.076132,-105.196025
825 MCINTIRE ST,BOULDER,Colorado,80303,40.002779,-105.234251
3016 FOLSOM ST,BOULDER,Colorado,80304,40.030303,-105.262857
3105 ARNETT ST,BOULDER,Colorado,80304,40.031296,-105.262366
2119 GOSS CIR W,BOULDER,Colorado,80302,40.016554,-105.26731
3155 ARNETT ST,BOULDER,Colorado,80304,40.03213,-105.262374
3756 26TH ST,BOULDER,Colorado,80304,40.042667,-105.262823
5753 N ORCHARD CREEK CIR,BOULDER,Colorado,80301,40.057499,-105.22055
3003 VALMONT RD,BOULDER,Colorado,80301,40.031073,-105.252567
5320 KEWANEE DR,BOULDER,Colorado,80303,39.991558,-105.228259
3030 FOLSOM ST,BOULDER,Colorado,80304,40.030493,-105.262662
2590 YARROW CT,BOULDER,Colorado,80305,39.976855,-105.260381
1860 BALSAM AVE,BOULDER,Colorado,80304,40.026511,-105.273083
3107 KINGS RIDGE BLVD,BOULDER,Colorado,80301,40.031201,-105.239761
746 11TH ST,BOULDER,Colorado,80302,40.000882,-105.278283
737 19TH ST,BOULDER,Colorado,80302,40.000798,-105.269116
4871 ELDORADO SPRINGS DR,BOULDER,Colorado,80303,39.94956,-105.239914
4817 ELDORADO SPRINGS DR,BOULDER,Colorado,80303,39.949521,-105.24097
1408 SUNSHINE CANYON DR,BOULDER,Colorado,80302,40.026322,-105.311123
4500 19TH ST LOT 342,BOULDER,Colorado,80304,40.055675,-105.275504
621 TANTRA DR,BOULDER,Colorado,80305,39.984216,-105.239891
3003 VALMONT RD LOT 74,BOULDER,Colorado,80301,40.031073,-105.252567
1502 UPLAND AVE,BOULDER,Colorado,80304,40.052527,-105.278132
7701 WILLIAMS VILLAGE NORTH HALL,BOULDER,Colorado,80301,40.049468,-105.201421
695 MANHATTAN DR,BOULDER,Colorado,80303,39.999662,-105.231091
285 BROKEN FENCE RD,BOULDER,Colorado,80302,40.016351,-105.351828
545 MAPLETON AVE,BOULDER,Colorado,80304,40.020915,-105.289044
4454 WELLINGTON RD,BOULDER,Colorado,80301,40.055579,-105.212567
182 RIDGE RD,BOULDER,Colorado,80303,39.988262,-105.169507
1255 19TH ST,BOULDER,Colorado,80302,40.012289,-105.270397
3069 BROADWAY,BOULDER,Colorado,80304,40.030459,-105.282374
4500 19TH ST LOT 299,BOULDER,Colorado,80304,40.055675,-105.275504
2955 GLENWOOD DR,BOULDER,Colorado,80301,40.033492,-105.255123
2340 SOUTH ST,BOULDER,Colorado,80302,40.019205,-105.263931
4500 19TH ST LOT 571,BOULDER,Colorado,80304,40.055675,-105.275504
3060 PENNSYLVANIA AVE,BOULDER,Colorado,80303,40.007985,-105.254039
2355 GROVE ST,BOULDER,Colorado,80302,40.015703,-105.263785
3455 TABLE MESA DR,BOULDER,Colorado,80305,39.985127,-105.254494
1001 ARAPAHOE AVE.,BOULDER,Colorado,80302,40.014017,-105.281826
4870 TWIN LAKES RD,BOULDER,Colorado,80301,40.063336,-105.195468
3730 26TH ST,BOULDER,Colorado,80304,40.042302,-105.262272
1373 CAVAN ST,BOULDER,Colorado,80303,40.010293,-105.136815
1133 PORTLAND PL,BOULDER,Colorado,80304,40.023948,-105.282944
7446 SPRING DR,BOULDER,Colorado,80303,39.974784,-105.178739
3110 22ND ST,BOULDER,Colorado,80304,40.03151,-105.267651
2780 TAFT DR,BOULDER,Colorado,80302,40.010335,-105.259267
3629 21ST ST,BOULDER,Colorado,80304,40.041059,-105.271063
1485 UPLAND AVE,BOULDER,Colorado,80304,40.053375,-105.278934
13 HALLETT HALL,BOULDER,Colorado,80301,40.049468,-105.201421
2829 14TH ST,BOULDER,Colorado,80304,40.027257,-105.278834
1470 OAK PL,BOULDER,Colorado,80304,40.044195,-105.27905
30 PIMA CT,BOULDER,Colorado,80303,39.987785,-105.23462
1638 18TH ST,BOULDER,Colorado,80302,40.016081,-105.271153
890 ORMAN DR,BOULDER,Colorado,80303,40.004839,-105.238488
4786 ESSEX CIR,BOULDER,Colorado,80301,40.061503,-105.170795
3440 22ND ST,BOULDER,Colorado,80304,40.037045,-105.268177
4428 GREENBRIAR BLVD,BOULDER,Colorado,80305,39.970756,-105.243029
7348 CLUBHOUSE RD,BOULDER,Colorado,80301,40.065182,-105.182027
4266 GRAHAM CT,BOULDER,Colorado,80305,39.989055,-105.243392
3055 6TH ST,BOULDER,Colorado,80304,40.030212,-105.28947
2860 4TH ST,BOULDER,Colorado,80304,40.027801,-105.291204
18 HALLETT HALL,BOULDER,Colorado,80301,40.049468,-105.201421
5331 HOLMES PL,BOULDER,Colorado,80303,40.010683,-105.22782
2300 ARAPAHOE AVE,BOULDER,Colorado,80302,40.014464,-105.264533
7654 WILLIAMS VILLAGE NORTH HALL,BOULDER,Colorado,80301,40.049468,-105.201421
1225 COLLEGE AVE,BOULDER,Colorado,80302,40.007496,-105.276629
960 UNIVERSITY AVE,BOULDER,Colorado,80302,40.010179,-105.280453
2805 ELM AVE,BOULDER,Colorado,80305,39.997728,-105.258388
3765 CANFIELD ST,BOULDER,Colorado,80301,40.043015,-105.24133
2925 19TH ST,BOULDER,Colorado,80304,40.028759,-105.272976
7743 ARLINGTON DR,BOULDER,Colorado,80303,40.007118,-105.173169
4940 THUNDERBIRD CIR,BOULDER,Colorado,80303,39.988554,-105.232746
6215 OLDE STAGE RD,BOULDER,Colorado,80302,40.087533,-105.302648
520 MOHAWK DR,BOULDER,Colorado,80303,39.996438,-105.236295
4760 GIBBS AVE,BOULDER,Colorado,80301,40.032647,-105.242205
2787 NORTHBROOK PL,BOULDER,Colorado,80304,40.04537,-105.258938
18 ARNETT HALL,BOULDER,Colorado,80301,40.049468,-105.201421
253 N 76TH ST,BOULDER,Colorado,80303,39.990826,-105.175877
4927 THUNDERBIRD CIR,BOULDER,Colorado,80303,39.989278,-105.232604
5522 MESA TOP CT,BOULDER,Colorado,80301,40.074803,-105.197293
897 ITHACA DR,BOULDER,Colorado,80305,39.980945,-105.257576
147 CHEROKEE WAY,BOULDER,Colorado,80303,39.989566,-105.231199
2043 ARAPAHOE AVE,BOULDER,Colorado,80302,40.01487,-105.268106
1814 SPRUCE ST,BOULDER,Colorado,80302,40.020363,-105.271828
4697 18TH ST,BOULDER,Colorado,80304,40.060028,-105.275322
3315 WRIGHT CIR,BOULDER,Colorado,80301,40.033074,-105.239339
160 SEMINOLE DR,BOULDER,Colorado,80303,39.989466,-105.229454
4125 47TH ST,BOULDER,Colorado,80301,40.049906,-105.244492
301 19TH ST,BOULDER,Colorado,80302,39.996334,-105.269127
3300 BRIDGER TRL,BOULDER,Colorado,80301,40.035831,-105.251031
3100 PEARL PKWY,BOULDER,Colorado,80301,40.023435,-105.251799
730 CONCORD AVE,BOULDER,Colorado,80304,40.022517,-105.286087
3953 FULLER CT,BOULDER,Colorado,80305,39.990901,-105.244419
4520 BROADWAY,BOULDER,Colorado,80304,40.056466,-105.281959
1133 PLEASANT ST,BOULDER,Colorado,80302,40.009747,-105.278284
1495 FINDLAY WAY,BOULDER,Colorado,80305,39.973479,-105.254929
2034 PEARL ST,BOULDER,Colorado,80302,40.019992,-105.26861
4664 S HAMPTON CIR,BOULDER,Colorado,80301,40.046855,-105.244604
4065 15TH ST,BOULDER,Colorado,80304,40.048504,-105.279293
4191 PIEDRA PL,BOULDER,Colorado,80301,40.046789,-105.256429
980 MORGAN DR,BOULDER,Colorado,80303,40.006056,-105.238324
4910 MEREDITH WAY,BOULDER,Colorado,80303,40.014064,-105.233459
6582 FINLEY PL,BOULDER,Colorado,80301,40.070793,-105.19987
3090 17TH ST,BOULDER,Colorado,80304,40.0317,-105.274838
5378 GUNBARREL CENTER CT,BOULDER,Colorado,80026,40.071911,-105.199242
2611 LLOYD CIR,BOULDER,Colorado,80304,40.038871,-105.262936
999 8TH ST,BOULDER,Colorado,80302,40.005326,-105.284661
955 5TH ST,BOULDER,Colorado,80302,40.004969,-105.290197
6623 BEAN MOUNTAIN LN,BOULDER,Colorado,80301,40.076163,-105.201126
184 VAQUERO DR,BOULDER,Colorado,80303,39.983227,-105.178879
460 S 42ND ST,BOULDER,Colorado,80305,39.986221,-105.245191
1775 LOMBARDY DR,BOULDER,Colorado,80304,40.042138,-105.2747
2220 21ST ST,BOULDER,Colorado,80302,40.022782,-105.268805
1057 POPLAR AVE,BOULDER,Colorado,80304,40.047123,-105.283329
2655 JUNIPER AVE,BOULDER,Colorado,80304,40.037549,-105.262154
3003 VALMONT RD LOT 204,BOULDER,Colorado,80301,40.031073,-105.252567
903 E MOORHEAD CIR,BOULDER,Colorado,80305,39.981335,-105.235958
2995 EUCLID AVE,BOULDER,Colorado,80303,40.005325,-105.253722
1853 26TH ST,BOULDER,Colorado,80302,40.018757,-105.261153
4733 ESSEX CT,BOULDER,Colorado,80301,40.060651,-105.170563
4580 13TH ST,BOULDER,Colorado,80304,40.057606,-105.28078
40 SOUTH BOULDER CIR,BOULDER,Colorado,80303,39.987237,-105.228532
4958 BEAR CREEK APTS B,BOULDER,Colorado,80301,40.049468,-105.201421
530 MOHAWK DR,BOULDER,Colorado,80303,39.996645,-105.236279
1613 7TH ST,BOULDER,Colorado,80302,40.011831,-105.285735
1222 OAKLEAF CIR,BOULDER,Colorado,80304,40.046087,-105.281761
182 ANEMONE DR,BOULDER,Colorado,80302,40.027721,-105.320588
823 MAXWELL AVE,BOULDER,Colorado,80304,40.022083,-105.285676
2900 E COLLEGE AVE,BOULDER,Colorado,80303,40.006881,-105.256486
3755 MOORHEAD AVE,BOULDER,Colorado,80305,39.992759,-105.246601
5116 WILLIAMS FORK TRL,BOULDER,Colorado,80301,40.065882,-105.199388
5610 ARAPAHOE AVE,BOULDER,Colorado,80303,40.013924,-105.224203
3320 BERKLEY CT,BOULDER,Colorado,80305,39.994921,-105.253087
4259 PRADO DR,BOULDER,Colorado,80303,39.943251,-105.254361
2960 VALMONT RD,BOULDER,Colorado,80301,40.02882,-105.25459
3113 BELL DR,BOULDER,Colorado,80301,40.03126,-105.243236
2024 HERMOSA DR,BOULDER,Colorado,80304,40.034914,-105.269128
773 SKY TRAIL RD,BOULDER,Colorado,80302,40.075956,-105.347797
1633 4TH ST,BOULDER,Colorado,80302,40.012333,-105.291819
3367 SENTINEL DR,BOULDER,Colorado,80301,40.036146,-105.240952
4869 BROADWAY,BOULDER,Colorado,80302,40.062616,-105.282775
410 S 40TH ST,BOULDER,Colorado,80305,39.987146,-105.247037
527 MAXWELL AVE,BOULDER,Colorado,80304,40.022051,-105.289343
657 PARAGON DR,BOULDER,Colorado,80303,39.981802,-105.176884
280 BOULDER VIEW RD,BOULDER,Colorado,80302,40.017593,-105.394271
5826 WOODBOURNE HOLLOW RD,BOULDER,Colorado,80301,40.043525,-105.218278
998 CHERRYVALE RD,BOULDER,Colorado,80303,40.004844,-105.211459
1298 WILDWOOD RD,BOULDER,Colorado,80305,39.975947,-105.266492
503 HARVARD LN,BOULDER,Colorado,80305,39.986399,-105.251257
3122 9TH ST,BOULDER,Colorado,80304,40.031558,-105.285228
3050 MADISON AVE,BOULDER,Colorado,80303,40.005711,-105.252218
1785 YARMOUTH AVE,BOULDER,Colorado,80304,40.058406,-105.275654
4327 BEAR CREEK APTS A,BOULDER,Colorado,80403,39.77443,-105.274024
1111 MAXWELL AVE,BOULDER,Colorado,80304,40.02236,-105.282989
3990 CARLOCK DR,BOULDER,Colorado,80305,39.980333,-105.248401
4555 OTTAWA PL,BOULDER,Colorado,80303,39.989851,-105.237203
1222 WILDWOOD CIR,BOULDER,Colorado,80305,39.976816,-105.265986
4669 APPLE WAY,BOULDER,Colorado,80301,40.052904,-105.245415
3161 MADISON AVE,BOULDER,Colorado,80303,40.006473,-105.251827
4031 STEARNS WEST HALL,BOULDER,Colorado,80303,40.007451,-105.200679
3093 REDSTONE LN,BOULDER,Colorado,80305,39.966872,-105.254845
2058 BALSAM DR,BOULDER,Colorado,80304,40.026513,-105.268667
1230 JUDSON DR,BOULDER,Colorado,80305,39.977219,-105.257185
6710 ARAPAHOE,BOULDER,Colorado,80303,40.013787,-105.19563
2685 JUNIPER AVE,BOULDER,Colorado,80304,40.038129,-105.261089
1805 SPRUCE ST,BOULDER,Colorado,80302,40.020891,-105.272332
4407 S HAMPTON CIR,BOULDER,Colorado,80301,40.046139,-105.246055
1920 CANYON BLVD,BOULDER,Colorado,80302,40.016992,-105.269809
990 LINCOLN PL,BOULDER,Colorado,80302,40.005259,-105.280822
815 32ND ST,BOULDER,Colorado,80303,40.002142,-105.251477
2025 18TH ST,BOULDER,Colorado,80302,40.020042,-105.272665
3171 VALMONT RD,BOULDER,Colorado,80301,40.029646,-105.251062
4406 CLIPPER CT,BOULDER,Colorado,80301,40.054702,-105.200615
1431 18TH ST,BOULDER,Colorado,80302,40.01425,-105.271945
3075 LITTLELEAF LN,BOULDER,Colorado,80304,40.030554,-105.261586
6836 OLDE STAGE RD,BOULDER,Colorado,80302,40.098669,-105.301762
4584 SPRUCEDALE PL,BOULDER,Colorado,80301,40.049375,-105.24686
3265 FOUNDRY PL,BOULDER,Colorado,80301,40.026806,-105.251376
4161 WESTCLIFFE CT,BOULDER,Colorado,80301,40.05007,-105.248113
819 14TH ST,BOULDER,Colorado,80302,40.002463,-105.27535
3900 19TH ST,BOULDER,Colorado,80304,40.046329,-105.272385
1940 WALNUT ST,BOULDER,Colorado,80302,40.01808,-105.269318
1528 HARRISON AVE,BOULDER,Colorado,80303,40.013067,-105.238272
1675 DOGWOOD LN,BOULDER,Colorado,80304,40.04068,-105.276356
165 CONTINENTAL VIEW DR,BOULDER,Colorado,80303,39.988448,-105.164604
7229 FOUR RIVERS RD,BOULDER,Colorado,80301,40.068966,-105.184451
1730 MAPLETON AVE,BOULDER,Colorado,80304,40.02215,-105.273643
4501 DRIFTWOOD PL,BOULDER,Colorado,80301,40.055865,-105.20618
4579 BEACHCOMBER CT,BOULDER,Colorado,80301,40.05713,-105.206246
2695 STANFORD AVE,BOULDER,Colorado,80305,39.987356,-105.258946
60 N CEDAR BROOK RD,BOULDER,Colorado,80304,40.049896,-105.303754
1030 ADAMS CIR,BOULDER,Colorado,80303,40.006338,-105.254935
4734 MCKINLEY DR,BOULDER,Colorado,80303,40.010358,-105.236359
7734 ANDREWS WAY,BOULDER,Colorado,80303,40.003825,-105.17311
4204 TAMARACK CT,BOULDER,Colorado,80304,40.051081,-105.264325
2605 REGIS DR,BOULDER,Colorado,80305,39.986107,-105.259322
5000 BUTTE ST LOT 159,BOULDER,Colorado,80301,40.033979,-105.236179
3975 ARBOL CT,BOULDER,Colorado,80301,40.047013,-105.253675
1409 QUINCE AVE,BOULDER,Colorado,80304,40.048353,-105.280113
4620 15TH ST,BOULDER,Colorado,80304,40.058716,-105.278343
1710 CEDAR AVE,BOULDER,Colorado,80304,40.027765,-105.274386
2895 COLLEGE AVE,BOULDER,Colorado,80303,40.007589,-105.257043
9038 CHEYENNE ARAPAHO HALL,BOULDER,Colorado,80301,40.049468,-105.201421
7418 SINGING HILLS DR,BOULDER,Colorado,80301,40.068882,-105.180123
3025 BROADWAY,BOULDER,Colorado,80304,40.03021,-105.282499
536 AZTEC DR,BOULDER,Colorado,80303,39.997364,-105.227682
2445 JUNCTION PL,BOULDER,Colorado,80301,40.025871,-105.251194
830 GRANT PL,BOULDER,Colorado,80302,40.002434,-105.282818
4468 CLAY ST,BOULDER,Colorado,80301,40.055872,-105.221711
1561 S FOOTHILLS HWY LOT F9,BOULDER,Colorado,80305,39.956445,-105.231073
3280 47TH ST,BOULDER,Colorado,80301,40.034255,-105.242813
5935 BRANDYWINE CT,BOULDER,Colorado,80301,40.058108,-105.215143
3105 GALILEO LN,BOULDER,Colorado,80301,40.031129,-105.240199
619 QUINCE CIR,BOULDER,Colorado,80304,40.047501,-105.28915
578 ARKANSAS MOUNTAIN RD,BOULDER,Colorado,80302,40.029049,-105.377999
6544 WILLIAMS VILLAGE EAST HALL,BOULDER,Colorado,80301,40.049468,-105.201421
4485 HAMILTON CT,BOULDER,Colorado,80305,39.988286,-105.24073
1951 ALPINE AVE,BOULDER,Colorado,80304,40.025708,-105.271303
5875 OLDE STAGE RD,BOULDER,Colorado,80302,40.081176,-105.302251
23 ANDREWS HALL,BOULDER,Colorado,80302,40.082921,-105.343523
4500 19TH ST LOT 69,BOULDER,Colorado,80304,40.055675,-105.275504
3224 PALO PKWY,BOULDER,Colorado,80301,40.043572,-105.250813
3295 34TH ST,BOULDER,Colorado,80301,40.034422,-105.24927
722 4 MILE CANYON DR,BOULDER,Colorado,80105,39.616476,-104.044155
5047 GALLATIN PL,BOULDER,Colorado,80303,40.00956,-105.231797
525 HARTFORD DR,BOULDER,Colorado,80305,39.984649,-105.256804
5553 HIGH COUNTRY CT,BOULDER,Colorado,80301,40.074434,-105.195637
37292 BOULDER CANYON DR,BOULDER,Colorado,80302,40.005641,-105.342139
4385 CHIPPEWA DR,BOULDER,Colorado,80303,39.997014,-105.238906
2690 UNIVERSITY HEIGHTS AVE,BOULDER,Colorado,80302,40.009335,-105.26043
61 QUALLA CT,BOULDER,Colorado,80303,39.988898,-105.234829
3260 47TH ST,BOULDER,Colorado,80301,40.034254,-105.243778
3323 CRIPPLE CREEK TRL,BOULDER,Colorado,80305,39.967033,-105.253134
2227 CANYON BLVD,BOULDER,Colorado,80302,40.017995,-105.265598
7120 CEDARWOOD CIR,BOULDER,Colorado,80301,40.066138,-105.186502
2985 AURORA AVE,BOULDER,Colorado,80303,40.003879,-105.25409
3101 IRON FORGE PL,BOULDER,Colorado,80301,40.027332,-105.252527
4585 SUNNYSIDE PL,BOULDER,Colorado,80301,40.050841,-105.246654
195 BELLEVUE DR,BOULDER,Colorado,80302,39.99491,-105.27655
3100 KITTRELL CT,BOULDER,Colorado,80305,39.969396,-105.252439
1913 MAPLETON AVE,BOULDER,Colorado,80304,40.023176,-105.271581
2536 10TH ST,BOULDER,Colorado,80304,40.024194,-105.283421
916 11TH ST,BOULDER,Colorado,80302,40.004107,-105.278318
5505 VALMONT RD,BOULDER,Colorado,80301,40.034299,-105.223092
445 ALPINE AVE,BOULDER,Colorado,80304,40.025698,-105.290522
5020 BUCKINGHAM RD,BOULDER,Colorado,80301,40.066127,-105.179942
5340 GUNBARREL CENTER CT,BOULDER,Colorado,80026,40.071572,-105.19878
4500 19TH ST LOT 40,BOULDER,Colorado,80304,40.055675,-105.275504
855 INCA PKWY,BOULDER,Colorado,80303,40.002601,-105.23966
700 MOHAWK DR,BOULDER,Colorado,80303,40.000679,-105.236011
2425 BLUFF ST,BOULDER,Colorado,80304,40.025657,-105.265225
2810 MARINE ST,BOULDER,Colorado,80303,40.013434,-105.257068
506 PINE ST,BOULDER,Colorado,80302,40.018183,-105.289796
1821 MARINE ST,BOULDER,Colorado,80302,40.01379,-105.270988
4647 DEVONSHIRE ST,BOULDER,Colorado,80301,40.058868,-105.173219
1012 UNIVERSITY AVE,BOULDER,Colorado,80302,40.010182,-105.279516
755 7TH ST,BOULDER,Colorado,80302,40.001095,-105.287018
5563 SPINE RD,BOULDER,Colorado,80301,40.075118,-105.202715
4224 REDWOOD PL,BOULDER,Colorado,80301,40.04866,-105.256025
585 DEER TRAIL RD,BOULDER,Colorado,80302,40.083361,-105.341432
4500 BASELINE RD,BOULDER,Colorado,80020,40.000117,-105.039281
3091 29TH ST,BOULDER,Colorado,80301,40.030843,-105.256483
1166 CHERRYVALE RD,BOULDER,Colorado,80303,40.007862,-105.211212
1019 14TH ST,BOULDER,Colorado,80302,40.005843,-105.275374
405 VALLEY VIEW DR,BOULDER,Colorado,80304,40.024798,-105.291329
798 FOX HILL CT,BOULDER,Colorado,80303,40.00198,-105.193741
1510 EISENHOWER DR,BOULDER,Colorado,80303,40.013199,-105.230561
3080 PEARL PKWY,BOULDER,Colorado,80301,40.022671,-105.252455
1895 ALPINE AVE,BOULDER,Colorado,80304,40.025941,-105.27343
1245 HARTFORD DR,BOULDER,Colorado,80305,39.977113,-105.255906
840 37TH ST,BOULDER,Colorado,80303,40.002763,-105.246238
735 17TH ST,BOULDER,Colorado,80302,40.000858,-105.271529
4040 EVANS DR,BOULDER,Colorado,80303,40.001277,-105.242843
6930 HUNTER PL,BOULDER,Colorado,80301,40.070867,-105.191998
225 DEER TRAIL CIR,BOULDER,Colorado,80302,40.080124,-105.359299
2978 SHADY HOLLOW W,BOULDER,Colorado,80304,40.028738,-105.260344
109 HURON CT,BOULDER,Colorado,80303,39.987985,-105.223139
87 GENESEE CT,BOULDER,Colorado,80303,39.987599,-105.224525
2950 18TH ST,BOULDER,Colorado,80304,40.029246,-105.273888
3705 CANFIELD ST,BOULDER,Colorado,80301,40.04087,-105.243353
1812 CANYON BLVD,BOULDER,Colorado,80302,40.016953,-105.271101
4830 MEREDITH WAY,BOULDER,Colorado,80303,40.013415,-105.233473
3355 BRIDGER TRL,BOULDER,Colorado,80301,40.036169,-105.250992
2380 HILLSDALE WAY,BOULDER,Colorado,80305,39.981104,-105.265233
3750 EMERSON AVE,BOULDER,Colorado,80305,39.97485,-105.250306
36 CANYON VIEW RD,BOULDER,Colorado,80302,40.009053,-105.351447
770 10TH ST,BOULDER,Colorado,80302,40.001386,-105.279515
1240 NORWOOD AVE,BOULDER,Colorado,80304,40.043525,-105.281793
4683 14TH ST,BOULDER,Colorado,80304,40.059871,-105.280022
2126 COLUMBINE AVE,BOULDER,Colorado,80302,39.998881,-105.265768
2968 S LAKERIDGE TRL,BOULDER,Colorado,80302,40.136201,-105.284935
320 ERIE DR,BOULDER,Colorado,80303,39.995119,-105.244729
1921 CANYON BLVD,BOULDER,Colorado,80302,40.017641,-105.269788
488 S LASHLEY LN,BOULDER,Colorado,80305,39.987704,-105.251758
2501 BLUFF ST,BOULDER,Colorado,80304,40.025639,-105.264272
4761 TANTRA DR,BOULDER,Colorado,80305,39.983347,-105.237284
1700 BALSAM AVE,BOULDER,Colorado,80304,40.026509,-105.274604
1730 BALSAM AVE,BOULDER,Colorado,80304,40.026509,-105.27432
820 28TH ST,BOULDER,Colorado,80303,40.001678,-105.25832
701 9TH ST,BOULDER,Colorado,80302,40.000252,-105.282261
1390 ITHACA DR,BOULDER,Colorado,80305,39.975294,-105.256288
9147 SUNSHINE CANYON DR,BOULDER,Colorado,80302,40.066532,-105.402349
3821 CLOVERLEAF DR,BOULDER,Colorado,80304,40.042484,-105.27442
3735 CANFIELD ST,BOULDER,Colorado,80301,40.042097,-105.242705
247 FOX DR,BOULDER,Colorado,80303,39.99337,-105.244515
3106 BELL DR,BOULDER,Colorado,80301,40.031393,-105.242385
607 MAPLETON AVE,BOULDER,Colorado,80304,40.020784,-105.288281
2804 3RD ST,BOULDER,Colorado,80304,40.026872,-105.292361
4256 REDWOOD CT,BOULDER,Colorado,80301,40.049425,-105.255242
410 22ND ST,BOULDER,Colorado,80302,39.997635,-105.264677
33 SOUTH BOULDER CIR,BOULDER,Colorado,80303,39.986624,-105.229782
1057 13TH ST,BOULDER,Colorado,80302,40.006518,-105.276609
411 HARVARD LN,BOULDER,Colorado,80305,39.987927,-105.254183
2236 PINE ST,BOULDER,Colorado,80302,40.022646,-105.266406
9184 CHEYENNE ARAPAHO HALL,BOULDER,Colorado,80301,40.049468,-105.201421
7050 WILLIAMS VILLAGE EAST HALL,BOULDER,Colorado,80301,40.049468,-105.201421
2224 MEAD DR,BOULDER,Colorado,80301,40.021054,-105.140976
660 MANHATTAN DR,BOULDER,Colorado,80303,39.9991,-105.229065
1311 SONGBIRD CT,BOULDER,Colorado,80303,40.009782,-105.207637
4975 TWIN LAKES RD,BOULDER,Colorado,80301,40.064908,-105.19737
540 HARTFORD DR,BOULDER,Colorado,80305,39.984185,-105.257028
3130 AURORA AVE,BOULDER,Colorado,80303,40.00358,-105.252179
2265 VASSAR DR,BOULDER,Colorado,80305,39.985474,-105.263288
105 MODEL T RD,BOULDER,Colorado,80302,40.039123,-105.333731
4615 HAMPSHIRE ST,BOULDER,Colorado,80301,40.058914,-105.167524
1325 19TH ST,BOULDER,Colorado,80302,40.013216,-105.270378
2582 SUMAC AVE,BOULDER,Colorado,80304,40.050298,-105.264038
177 BROOK CIR,BOULDER,Colorado,80302,40.078901,-105.336754
2860 LAGRANGE CIR,BOULDER,Colorado,80305,39.977525,-105.258612
2627 CRESTRIDGE CT,BOULDER,Colorado,80302,40.130744,-105.294384
775 MOHAWK DR,BOULDER,Colorado,80303,40.002634,-105.238152
3765 ARMER AVE,BOULDER,Colorado,80305,39.982156,-105.250418
1815 MARINE ST,BOULDER,Colorado,80302,40.013902,-105.271212
2421 SPRUCE ST,BOULDER,Colorado,80302,40.022577,-105.264107
5000 BUTTE ST LOT 255,BOULDER,Colorado,80301,40.033979,-105.236179
313 PEARL ST,BOULDER,Colorado,80302,40.016158,-105.291954
4500 19TH ST LOT 353,BOULDER,Colorado,80304,40.055675,-105.275504
605 WALDEN CIR,BOULDER,Colorado,80305,39.985297,-105.23649
5121 WILLIAMS FORK TRL,BOULDER,Colorado,80301,40.068925,-105.200614
518 CLOVER LN,BOULDER,Colorado,80303,39.997669,-105.180719
435 S 45TH ST,BOULDER,Colorado,80305,39.986586,-105.242952
4500 19TH ST LOT 635,BOULDER,Colorado,80304,40.055675,-105.275504
7161 WILLIAMS VILLAGE EAST HALL,BOULDER,Colorado,80301,40.049468,-105.201421
4873 BRIAR RIDGE CT,BOULDER,Colorado,80301,40.063359,-105.182363
6175 HABITAT DR,BOULDER,Colorado,80301,40.061037,-105.209563
3000 COLORADO AVE,BOULDER,Colorado,80303,40.007059,-105.251851
540 DEWEY AVE,BOULDER,Colorado,80304,40.023456,-105.288776
1670 IRIS AVE,BOULDER,Colorado,80304,40.035888,-105.27609
2711 N 95TH ST,BOULDER,Colorado,80301,40.026392,-105.133809
3100 BROADWAY,BOULDER,Colorado,80304,40.031202,-105.281322
3075 FULTON CIR,BOULDER,Colorado,80301,40.030279,-105.241254
4550 LAGUNA PL,BOULDER,Colorado,80303,39.997831,-105.237728
2939 MARINE ST,BOULDER,Colorado,80303,40.013856,-105.256528
2608 CARRIAGE HILLS DR,BOULDER,Colorado,80302,40.07085,-105.330263
6824 IDYLWILD CT,BOULDER,Colorado,80301,40.061027,-105.194674
290 30TH ST,BOULDER,Colorado,80305,39.99596,-105.256593
1282 BEAR MOUNTAIN CT,BOULDER,Colorado,80305,39.975906,-105.262803
95 S 35TH ST,BOULDER,Colorado,80305,39.993387,-105.252005
1570 EISENHOWER DR,BOULDER,Colorado,80303,40.014079,-105.230636
2990 GLENWOOD DR,BOULDER,Colorado,80301,40.032491,-105.254053
765 33RD ST,BOULDER,Colorado,80303,40.001577,-105.250587
950 MARINE ST,BOULDER,Colorado,80302,40.011979,-105.281455
4800 OSAGE DR,BOULDER,Colorado,80303,39.989783,-105.23339
8543 MIDDLE FORK RD,BOULDER,Colorado,80302,40.12801,-105.289851
905 EVERGREEN AVE,BOULDER,Colorado,80304,40.03133,-105.285335
1067 SYCAMORE AVE,BOULDER,Colorado,80303,40.00619,-105.226828
159 PEAKVIEW RD,BOULDER,Colorado,80302,40.092293,-105.33341
3240 IRIS AVE,BOULDER,Colorado,80301,40.036225,-105.250548
415 SUNNYSIDE LN,BOULDER,Colorado,80302,39.997428,-105.26226
5686 CASCADE PL,BOULDER,Colorado,80303,40.000639,-105.220739
4458 9TH ST,BOULDER,Colorado,80304,40.056045,-105.28546
210 SOUTH PEAK LN,BOULDER,Colorado,80302,40.021933,-105.422992
3080 29TH ST,BOULDER,Colorado,80301,40.03081,-105.255835
3295 MEREDITH ST,BOULDER,Colorado,80301,40.028562,-105.251128
4672 KIRKWOOD CT,BOULDER,Colorado,80301,40.060043,-105.161514
2960 DOVER DR,BOULDER,Colorado,80305,39.987791,-105.256936
2950 E COLLEGE AVE,BOULDER,Colorado,80303,40.006878,-105.255625
3145 ARNETT ST,BOULDER,Colorado,80304,40.031929,-105.262372
4415 GARNET LN,BOULDER,Colorado,80304,40.049371,-105.270979
4145 RIVERSIDE AVE,BOULDER,Colorado,80304,40.049233,-105.281781
1225 RIVERSIDE AVE,BOULDER,Colorado,80304,40.050279,-105.281416
7575 CONCORD DR,BOULDER,Colorado,80301,40.058151,-105.176617
1050 ARAPAHOE AVE,BOULDER,Colorado,80302,40.013347,-105.280318
4917 THUNDERBIRD DR,BOULDER,Colorado,80303,39.98785,-105.232805
2716 WINDING TRAIL PL,BOULDER,Colorado,80304,40.0421,-105.259814
4716 EDISON LN,BOULDER,Colorado,80301,40.030493,-105.243836
3820 NEWPORT LN,BOULDER,Colorado,80304,40.044673,-105.291816
3955 28TH ST,BOULDER,Colorado,80301,40.046274,-105.25914
4636 14TH ST,BOULDER,Colorado,80304,40.058821,-105.279643
4803 HOPKINS PL,BOULDER,Colorado,80301,40.035067,-105.241568
7734 DURHAM CIR,BOULDER,Colorado,80301,40.064658,-105.173027
60 SOUTH BOULDER CIR,BOULDER,Colorado,80303,39.986659,-105.229031
1049 STEARNS AVE,BOULDER,Colorado,80303,40.005248,-105.203131
3995 DARLEY AVE,BOULDER,Colorado,80305,39.980099,-105.248195
4542 7TH ST,BOULDER,Colorado,80304,40.057539,-105.287651
2295 GOSS CIR E,BOULDER,Colorado,80302,40.016644,-105.264835
5793 N ORCHARD CREEK CIR,BOULDER,Colorado,80301,40.058114,-105.219301
447 PEARL ST,BOULDER,Colorado,80302,40.01607,-105.289801
906 ALPINE AVE,BOULDER,Colorado,80304,40.025249,-105.285177
3143 EASTWOOD CT,BOULDER,Colorado,80304,40.031639,-105.260611
625 MANHATTAN PL,BOULDER,Colorado,80303,39.998155,-105.230957
3790 26TH ST,BOULDER,Colorado,80304,40.043562,-105.262952
1380 ROSEWOOD AVE,BOULDER,Colorado,80304,40.056659,-105.280278
3968 FULLER CT,BOULDER,Colorado,80305,39.990125,-105.245705
575 PONDEROSA DR,BOULDER,Colorado,80303,39.982647,-105.172956
2040 SPRUCE ST,BOULDER,Colorado,80302,40.020986,-105.268846
2890 15TH ST,BOULDER,Colorado,80304,40.027825,-105.276386
5574 BASELINE RD,BOULDER,Colorado,80303,39.999957,-105.223614
4816 GIBBS AVE,BOULDER,Colorado,80301,40.032558,-105.241444
2855 FOLSOM ST,BOULDER,Colorado,80304,40.028783,-105.26452
419 IRIS AVE,BOULDER,Colorado,80304,40.036194,-105.290865
210 MANHATTAN DR,BOULDER,Colorado,80303,39.991091,-105.228617
4171 COOPER CT,BOULDER,Colorado,80303,40.002482,-105.242659
1065 UNIVERSITY AVE,BOULDER,Colorado,80302,40.010786,-105.279627
754 COTTAGE LN,BOULDER,Colorado,80304,40.051426,-105.286325
4580 SUGARLOAF RD,BOULDER,Colorado,80302,40.020708,-105.411728
615 S 44TH ST,BOULDER,Colorado,80305,39.984339,-105.243883
3881 26TH ST,BOULDER,Colorado,80304,40.044987,-105.263814
770 6TH ST,BOULDER,Colorado,80302,40.001316,-105.286223
854 WALNUT ST,BOULDER,Colorado,80302,40.015156,-105.284432
345 PUMA WALK,BOULDER,Colorado,80302,40.041111,-105.377712
2902 SHADOW CREEK DR,BOULDER,Colorado,80303,40.01018,-105.254324
2223 NICHOLL ST,BOULDER,Colorado,80304,40.029136,-105.269883
835 ZAMIA AVE,BOULDER,Colorado,80304,40.060911,-105.285582
5948 GUNBARREL AVE,BOULDER,Colorado,80301,40.060866,-105.213877
577 N 76TH ST,BOULDER,Colorado,80303,39.998424,-105.176037
2884 NEBRINA PL,BOULDER,Colorado,80301,40.043051,-105.256133
721 MILLIONAIRE DR W,BOULDER,Colorado,80302,40.015243,-105.373357
5000 BUTTE ST LOT 236,BOULDER,Colorado,80301,40.033979,-105.236179
2065 JOSLYN PL,BOULDER,Colorado,80304,40.038009,-105.2713
4659 IPSWICH ST,BOULDER,Colorado,80301,40.059833,-105.165092
3694 CHASE CT,BOULDER,Colorado,80305,39.992619,-105.247386
3965 MARTIN DR,BOULDER,Colorado,80305,39.989996,-105.246095
2137 KALMIA CIR,BOULDER,Colorado,80304,40.039793,-105.269235
329 29TH ST,BOULDER,Colorado,80305,39.997149,-105.257762
1405 BROADWAY,BOULDER,Colorado,80302,40.010962,-105.277588
2850 20TH ST,BOULDER,Colorado,80304,40.028602,-105.27133
4800 SUGARLOAF RD,BOULDER,Colorado,80302,40.020457,-105.416502
155 S 42ND ST,BOULDER,Colorado,80305,39.989715,-105.243973
1265 GILLASPIE DR,BOULDER,Colorado,80305,39.976625,-105.248451
1290 TOEDTLI DR,BOULDER,Colorado,80305,39.976841,-105.24248
7497 SINGING HILLS DR,BOULDER,Colorado,80301,40.067878,-105.179204
4476 GALLEY CT,BOULDER,Colorado,80301,40.055725,-105.199193
3061 29TH ST,BOULDER,Colorado,80301,40.030393,-105.256958
5148 BUCKINGHAM RD,BOULDER,Colorado,80301,40.066939,-105.179024
1641 4TH ST,BOULDER,Colorado,80302,40.012499,-105.291853
345 MANHATTAN DR,BOULDER,Colorado,80303,39.994236,-105.230219
7725 ESSEX PL,BOULDER,Colorado,80301,40.060631,-105.172235
1160 MONROE DR,BOULDER,Colorado,80303,40.00692,-105.241305
1565 LINDEN AVE,BOULDER,Colorado,80304,40.041483,-105.277925
2890 SHADOW CREEK DR,BOULDER,Colorado,80303,40.010319,-105.256415
3795 RIDGEWAY ST,BOULDER,Colorado,80301,40.043637,-105.249133
3484 16TH CIR,BOULDER,Colorado,80304,40.038075,-105.276424
4685 TALLY HO CT,BOULDER,Colorado,80301,40.05975,-105.197228
630 HARTFORD DR,BOULDER,Colorado,80305,39.984204,-105.259223
3000 BROADWAY,BOULDER,Colorado,80304,40.029371,-105.281284
3387 CRIPPLE CREEK TRL,BOULDER,Colorado,80305,39.967786,-105.252392
3009 MADISON AVE,BOULDER,Colorado,80303,40.006359,-105.252655
1765 SUNSET BLVD,BOULDER,Colorado,80304,40.024841,-105.273616
4265 DARLEY AVE,BOULDER,Colorado,80305,39.981648,-105.245064
4435 WHITNEY PL,BOULDER,Colorado,80305,39.980773,-105.24297
3211 7TH ST,BOULDER,Colorado,80304,40.033153,-105.288301
3080 PEARL PKWY BLDG D302,BOULDER,Colorado,80301,40.022671,-105.252455
2491 23RD ST,BOULDER,Colorado,80304,40.025624,-105.267424
710 S 41ST ST,BOULDER,Colorado,80305,39.983398,-105.246118
2960 21ST ST,BOULDER,Colorado,80304,40.029831,-105.270265
2935 COLLEGE AVE,BOULDER,Colorado,80303,40.007315,-105.255522
2691 JUNIPER AVE,BOULDER,Colorado,80304,40.038125,-105.260928
520 S 45TH ST,BOULDER,Colorado,80305,39.985477,-105.242392
2255 24TH ST,BOULDER,Colorado,80302,40.023748,-105.26539
1138 PLEASANT ST,BOULDER,Colorado,80302,40.009248,-105.277835
4773 ASHFIELD CIR,BOULDER,Colorado,80301,40.061434,-105.177785
4644 ALMOND LN,BOULDER,Colorado,80301,40.058936,-105.210295
7871 DURHAM WAY,BOULDER,Colorado,80301,40.062728,-105.169685
2141 BASELINE RD,BOULDER,Colorado,80302,40.000444,-105.265169
5668 AURORA PL,BOULDER,Colorado,80303,40.002095,-105.221172
262 SPRUCE ST,BOULDER,Colorado,80302,40.01598,-105.293126
1135 PENNSYLVANIA AVE,BOULDER,Colorado,80302,40.008928,-105.277923
1887 TANSY PL,BOULDER,Colorado,80304,40.059049,-105.273203
47 RIDGE RD,BOULDER,Colorado,80303,39.987655,-105.171269
841 GAPTER RD,BOULDER,Colorado,80303,40.002419,-105.215346
7775 DURHAM CIR,BOULDER,Colorado,80301,40.065119,-105.17181
780 MOHAWK DR,BOULDER,Colorado,80303,40.003118,-105.238
4247 MONROE DR,BOULDER,Colorado,80303,40.006256,-105.242643
807 E MOORHEAD CIR,BOULDER,Colorado,80305,39.982385,-105.235976
3820 COLORADO AVE,BOULDER,Colorado,80303,40.006041,-105.245124
738 ITHACA DR,BOULDER,Colorado,80305,39.982782,-105.26224
1265 MALLARD CT,BOULDER,Colorado,80303,40.009321,-105.212607
2440 DARTMOUTH AVE,BOULDER,Colorado,80305,39.988839,-105.26226
7977 BASELINE RD,BOULDER,Colorado,80303,40.000473,-105.163641
4531 ABERDEEN PL,BOULDER,Colorado,80301,40.057061,-105.17646
3550 ELDORADO SPRINGS DR,BOULDER,Colorado,80303,39.932714,-105.26884
901 MCINTIRE ST,BOULDER,Colorado,80303,40.004332,-105.234486
4620 MACKY WAY,BOULDER,Colorado,80305,39.975375,-105.239425
3096 EDISON CT,BOULDER,Colorado,80301,40.030774,-105.242352
2131 S WALNUT ST,BOULDER,Colorado,80302,40.019264,-105.267142
2830 CARNEGIE DR,BOULDER,Colorado,80305,39.983182,-105.257967
4650 WHITE ROCK CIR,BOULDER,Colorado,80301,40.058996,-105.21579
3717 CANFIELD ST,BOULDER,Colorado,80301,40.041511,-105.243472
417 ORD DR,BOULDER,Colorado,80303,39.995014,-105.171875
4572 TANGLEWOOD TRL,BOULDER,Colorado,80301,40.057987,-105.179405
5000 BUTTE ST LOT 192,BOULDER,Colorado,80301,40.033979,-105.236179
700 36TH ST,BOULDER,Colorado,80303,40.000429,-105.247148
901 TERRACE CIR S,BOULDER,Colorado,80302,40.067083,-105.284837
4005 DARLEY AVE,BOULDER,Colorado,80305,39.980208,-105.247988
3722 SPRING VALLEY RD,BOULDER,Colorado,80304,40.041862,-105.292453
6648 DREW RANCH LN,BOULDER,Colorado,80301,40.075708,-105.200541
195 INCA PKWY,BOULDER,Colorado,80303,39.992459,-105.24253
2995 GLENWOOD DR,BOULDER,Colorado,80301,40.033385,-105.254336
935 BROADWAY,BOULDER,Colorado,80302,40.003969,-105.269367
4604 TALBOT DR,BOULDER,Colorado,80303,40.002029,-105.237339
6495 KALUA RD,BOULDER,Colorado,80301,40.056297,-105.201703
5740 SLICK ROCK CT,BOULDER,Colorado,80301,40.076364,-105.19515
3086 BROADWAY,BOULDER,Colorado,80304,40.03081,-105.281736
3526 KIRKWOOD PL,BOULDER,Colorado,80304,40.03835,-105.270791
505 27TH WAY,BOULDER,Colorado,80305,39.997917,-105.261095
2905 AURORA AVE,BOULDER,Colorado,80303,40.003881,-105.255688
1121 30TH ST,BOULDER,Colorado,80303,40.006661,-105.253452
1425 BLUE SAGE CT,BOULDER,Colorado,80305,39.973011,-105.264908
200 ECHO PL,BOULDER,Colorado,80302,39.995458,-105.265988
2852 KALMIA AVE,BOULDER,Colorado,80301,40.039464,-105.256287
1830 16TH ST,BOULDER,Colorado,80302,40.017613,-105.273966
1372 WICKLOW ST,BOULDER,Colorado,80303,40.010298,-105.140015
3477 IRIS CT,BOULDER,Colorado,80304,40.037828,-105.275942
4714 HAMPSHIRE ST,BOULDER,Colorado,80301,40.060298,-105.166535
1098 FAIRWAY CT,BOULDER,Colorado,80303,40.00678,-105.224723
2810 LAGRANGE CIR,BOULDER,Colorado,80305,39.977827,-105.257676
5515 RACQUET LN,BOULDER,Colorado,80303,40.003693,-105.224811
750 S 42ND ST,BOULDER,Colorado,80305,39.982658,-105.245184
3574 BROADWAY,BOULDER,Colorado,80304,40.038732,-105.281719
1420 SUNSET BLVD,BOULDER,Colorado,80304,40.022978,-105.277231
1305 5TH ST,BOULDER,Colorado,80302,40.009571,-105.28951
2805 SUNDOWN LN,BOULDER,Colorado,80303,40.010594,-105.257842
2727 FOLSOM ST,BOULDER,Colorado,80304,40.027682,-105.263624
955 LARAMIE BLVD,BOULDER,Colorado,80304,40.066078,-105.284728
3335 EUCLID AVE,BOULDER,Colorado,80303,40.005323,-105.250057
7042 ROARING FORK TRL,BOULDER,Colorado,80301,40.068801,-105.189656
3525 28TH ST,BOULDER,Colorado,80301,40.038522,-105.259102
2289 PARK LAKE DR,BOULDER,Colorado,80301,40.021813,-105.149143
3795 BIRCHWOOD DR,BOULDER,Colorado,80304,40.043172,-105.259958
3508 KIRKWOOD PL,BOULDER,Colorado,80304,40.03828,-105.271426
4793 BRIAR RIDGE TRL,BOULDER,Colorado,80301,40.061796,-105.18116
2995 EAGLE WAY,BOULDER,Colorado,80301,40.031679,-105.254171
3065 GALENA WAY,BOULDER,Colorado,80305,39.965685,-105.255283
3808 TELLURIDE PL,BOULDER,Colorado,80305,39.967213,-105.249352
5246 DESERT PINE CT,BOULDER,Colorado,80301,40.070001,-105.180806
760 LOCUST AVE,BOULDER,Colorado,80304,40.053736,-105.287655
105 S 36TH ST,BOULDER,Colorado,80305,39.991793,-105.251455
4595 SQUIRES CIR,BOULDER,Colorado,80305,39.979638,-105.241965
230 BELLEVUE DR,BOULDER,Colorado,80302,39.995096,-105.275603
1830 22ND ST,BOULDER,Colorado,80302,40.018362,-105.265672
6686 JAY RD,BOULDER,Colorado,80301,40.050843,-105.197937
1295 HARTFORD DR,BOULDER,Colorado,80305,39.976568,-105.255907
1286 AIKINS WAY,BOULDER,Colorado,80305,39.974975,-105.238625
3303 BLUFF ST,BOULDER,Colorado,80301,40.027961,-105.250248
2200 TOPAZ DR,BOULDER,Colorado,80304,40.049175,-105.268371
1720 S MARSHALL RD TRLR 40,BOULDER,Colorado,80027,39.970084,-105.236156
2000 CANYON BLVD,BOULDER,Colorado,80302,40.016994,-105.268792
698 WALDEN CIR,BOULDER,Colorado,80305,39.983046,-105.236738
3055 FOLSOM ST,BOULDER,Colorado,80304,40.030952,-105.263416
4727 BERKSHIRE CT,BOULDER,Colorado,80301,40.060575,-105.175558
3565 ARTHUR CT,BOULDER,Colorado,80304,40.039435,-105.260393
1926 CANYON BLVD,BOULDER,Colorado,80302,40.016992,-105.269532
2000 WALNUT ST,BOULDER,Colorado,80302,40.018665,-105.268915
1505 BRADLEY DR,BOULDER,Colorado,80305,39.972535,-105.239063
1842 CANYON BLVD,BOULDER,Colorado,80302,40.016828,-105.270659
2715 IRIS AVE,BOULDER,Colorado,80304,40.036589,-105.262597
1456 GREENBRIAR BLVD,BOULDER,Colorado,80305,39.972792,-105.240979
1104 JUNIPER AVE,BOULDER,Colorado,80304,40.036862,-105.283232
1440 BALSAM AVE,BOULDER,Colorado,80304,40.02644,-105.277457
4768 FRANKLIN DR,BOULDER,Colorado,80301,40.032675,-105.243192
2925 GLENWOOD DR,BOULDER,Colorado,80301,40.033455,-105.256535
5000 BUTTE ST LOT 102,BOULDER,Colorado,80301,40.033979,-105.236179
9114 LIBBY HALL,BOULDER,Colorado,80301,40.049468,-105.201421
3878 CAMPO CT,BOULDER,Colorado,80301,40.0465,-105.250949
335 OAKWOOD PL,BOULDER,Colorado,80304,40.045701,-105.292634
3970 NEWPORT LN,BOULDER,Colorado,80304,40.046346,-105.290461
357 PEARL ST,BOULDER,Colorado,80302,40.015921,-105.291012
5791 S ORCHARD CREEK CIR,BOULDER,Colorado,80301,40.055506,-105.219548
415 S 39TH ST,BOULDER,Colorado,80305,39.986949,-105.248527
6657 LOOKOUT RD,BOULDER,Colorado,80026,40.073149,-105.19811
4701 N 51ST ST,BOULDER,Colorado,80301,40.060105,-105.236665
3006 FULTON CIR,BOULDER,Colorado,80301,40.030468,-105.241493
3963 SPRINGLEAF LN,BOULDER,Colorado,80304,40.046972,-105.282878
2478 VINE PL,BOULDER,Colorado,80304,40.053006,-105.264707
1725 CANYON BLVD,BOULDER,Colorado,80302,40.017612,-105.271895
1720 BLUFF ST,BOULDER,Colorado,80304,40.023181,-105.274285
1028 MAXWELL AVE,BOULDER,Colorado,80304,40.021529,-105.283346
5185 MERRITT DR,BOULDER,Colorado,80303,40.012681,-105.230196
4645 15TH ST,BOULDER,Colorado,80304,40.05901,-105.278708
4990 OSAGE DR,BOULDER,Colorado,80303,39.989972,-105.232602
2524 MAPLETON AVE,BOULDER,Colorado,80304,40.024306,-105.263267
2041 EVERGREEN AVE,BOULDER,Colorado,80304,40.030603,-105.270866
1434 PATTON DR,BOULDER,Colorado,80303,40.011484,-105.228745
3315 CHISHOLM TRL,BOULDER,Colorado,80301,40.035952,-105.250988
2002 BASELINE RD,BOULDER,Colorado,80302,39.999833,-105.267545
4658 WHITE ROCK CIR,BOULDER,Colorado,80301,40.058996,-105.214751
1665 DOGWOOD LN,BOULDER,Colorado,80304,40.04069,-105.276627
6513 RED HILL RD,BOULDER,Colorado,80302,40.09299,-105.304499
1200 COLLEGE AVE,BOULDER,Colorado,80302,40.0069,-105.277026
4700 SHAWNEE PL,BOULDER,Colorado,80303,39.992025,-105.235213
4659 17TH ST,BOULDER,Colorado,80304,40.059376,-105.276509
4231 EATON CT,BOULDER,Colorado,80303,40.002799,-105.242654
676 WALDEN CIR,BOULDER,Colorado,80305,39.983552,-105.236473
725 UNION AVE,BOULDER,Colorado,80304,40.053246,-105.289056
1334 SCRUB OAK CIR,BOULDER,Colorado,80305,39.975255,-105.262213
4662 HAMPSHIRE ST,BOULDER,Colorado,80301,40.059882,-105.166647
777 BROADWAY RM 11,BOULDER,Colorado,80302,40.002412,-105.266537
606 WALDEN CIR,BOULDER,Colorado,80305,39.985254,-105.236127
700 WALNUT ST,BOULDER,Colorado,80302,40.015241,-105.28586
3120 BROADWAY,BOULDER,Colorado,80304,40.031715,-105.281808
5037 VALMONT RD,BOULDER,Colorado,80301,40.02943,-105.2359
3330 MOORHEAD AVE,BOULDER,Colorado,80305,39.99588,-105.253187
4901 BEAR CREEK APTS B,BOULDER,Colorado,80301,40.049468,-105.201421
2870 E COLLEGE AVE,BOULDER,Colorado,80303,40.006832,-105.256976
4500 19TH ST,BOULDER,Colorado,80304,40.055675,-105.275504
600 MANHATTAN DR,BOULDER,Colorado,80303,39.998386,-105.228625
4500 19TH ST LOT 436,BOULDER,Colorado,80304,40.055675,-105.275504
2964 GLENWOOD DR,BOULDER,Colorado,80301,40.032558,-105.254855
1929 JOSLYN CT,BOULDER,Colorado,80304,40.037789,-105.272372
4886 KINGS RIDGE BLVD,BOULDER,Colorado,80301,40.032617,-105.240204
1044 MAXWELL AVE,BOULDER,Colorado,80304,40.021523,-105.283074
5128 WILLIAMS VILLAGE EAST HALL,BOULDER,Colorado,80301,40.066356,-105.199544
2775 TAFT DR BLDG A-1206,BOULDER,Colorado,80302,40.010772,-105.259677
9533 MOUNTAIN RIDGE DR,BOULDER,Colorado,80302,40.147169,-105.289258
380 S 41ST ST,BOULDER,Colorado,80305,39.987316,-105.246083
9028 FARRAND HALL,BOULDER,Colorado,80301,40.049468,-105.201421
2525 TAFT DR,BOULDER,Colorado,80302,40.010715,-105.26201
970 28TH ST,BOULDER,Colorado,80303,40.006366,-105.257254
2788 MOORHEAD AVE,BOULDER,Colorado,80305,39.99876,-105.258413
635 WALNUT ST,BOULDER,Colorado,80302,40.015815,-105.286729
649 HARTFORD DR,BOULDER,Colorado,80305,39.984642,-105.260517
626 MARINE ST,BOULDER,Colorado,80302,40.011364,-105.286578
1498 ORCHARD AVE,BOULDER,Colorado,80304,40.045773,-105.278832
768 17TH ST,BOULDER,Colorado,80302,40.00137,-105.270933
4686 TALBOT DR,BOULDER,Colorado,80303,40.001636,-105.237048
430 DEWEY AVE,BOULDER,Colorado,80304,40.023442,-105.290951
4564 S HAMPTON CIR,BOULDER,Colorado,80301,40.045948,-105.245025
390 LAKESHORE PARK RD,BOULDER,Colorado,80302,39.957867,-105.367768
7296 OLDE STAGE RD,BOULDER,Colorado,80302,40.108385,-105.302475
2801 21ST ST,BOULDER,Colorado,80304,40.027915,-105.270781
6262 WILLOW LN,BOULDER,Colorado,80301,40.059351,-105.20755
4984 CLUBHOUSE CT,BOULDER,Colorado,80301,40.065097,-105.182783
4220 19TH ST,BOULDER,Colorado,80304,40.051111,-105.272035
1466 MARSHALL RD,BOULDER,Colorado,80305,39.959671,-105.231277
3510 CATALPA WAY,BOULDER,Colorado,80304,40.038751,-105.273365
4318 ELDORADO SPRINGS DR,BOULDER,Colorado,80303,39.94168,-105.252588
1225 BEREA DR,BOULDER,Colorado,80305,39.976464,-105.250525
7311 OLDE STAGE RD,BOULDER,Colorado,80302,40.107423,-105.304397
4739 HARWICH ST,BOULDER,Colorado,80301,40.060871,-105.166002
5111 WILLIAMS FORK TRL,BOULDER,Colorado,80301,40.068944,-105.199433
7200 AUGUSTA DR,BOULDER,Colorado,80301,40.07128,-105.185483
340 FOX DR,BOULDER,Colorado,80303,39.995285,-105.243577
2920 16TH ST,BOULDER,Colorado,80304,40.028356,-105.275507
1063 YALE CIR,BOULDER,Colorado,80305,39.9792,-105.251132
3011 14TH ST,BOULDER,Colorado,80304,40.03069,-105.277719
3657 PASEO DEL PRADO,BOULDER,Colorado,80301,40.041106,-105.257761
4500 19TH ST LOT 165,BOULDER,Colorado,80304,40.055675,-105.275504
3271 WRIGHT AVE,BOULDER,Colorado,80301,40.032745,-105.238672
1284 BLACKBIRD CT,BOULDER,Colorado,80303,40.009273,-105.208729
1100 28TH ST,BOULDER,Colorado,80303,40.007604,-105.257694
1700 22ND ST,BOULDER,Colorado,80302,40.016558,-105.26589
3335 19TH ST,BOULDER,Colorado,80304,40.034923,-105.272973
3003 VALMONT RD LOT 260,BOULDER,Colorado,80301,40.031073,-105.252567
4632 STARBOARD DR,BOULDER,Colorado,80301,40.058648,-105.199891
440 HAWTHORN AVE,BOULDER,Colorado,80304,40.034766,-105.290784
3255 20TH ST,BOULDER,Colorado,80304,40.034472,-105.271322
1260 ELDER AVE,BOULDER,Colorado,80304,40.029951,-105.281005
2037 WALNUT ST,BOULDER,Colorado,80302,40.019492,-105.268625
433 DEER TRAIL CIR,BOULDER,Colorado,80302,40.082267,-105.358029
4631 TALBOT DR,BOULDER,Colorado,80303,40.00202,-105.238993
2409 VINEYARD PL,BOULDER,Colorado,80304,40.054372,-105.265234
2301 PEARL ST,BOULDER,Colorado,80302,40.02119,-105.265414
4806 MCKINLEY DR,BOULDER,Colorado,80303,40.011508,-105.234534
1026 LINCOLN PL,BOULDER,Colorado,80302,40.005958,-105.280787
2259 NICHOLL ST,BOULDER,Colorado,80304,40.029814,-105.268451
585 PIKA RD,BOULDER,Colorado,80302,39.957235,-105.3332
1047 BALSAM AVE,BOULDER,Colorado,80304,40.026891,-105.283538
741 WILD TURKEY TRL,BOULDER,Colorado,80302,40.043086,-105.371868
3034 LINDEN DR,BOULDER,Colorado,80304,40.051918,-105.312697
985 10TH ST,BOULDER,Colorado,80302,40.00524,-105.280287
1936 TIMBER LN,BOULDER,Colorado,80304,40.047654,-105.316601
1030 GRANDVIEW AVE,BOULDER,Colorado,80302,40.011278,-105.27925
2885 17TH ST,BOULDER,Colorado,80304,40.027811,-105.275141
3900 BRITTING AVE,BOULDER,Colorado,80305,39.980949,-105.249157
4500 19TH ST LOT 95,BOULDER,Colorado,80304,40.055675,-105.275504
4571 TALLY HO TRL,BOULDER,Colorado,80301,40.057142,-105.197062
745 THOMAS DR,BOULDER,Colorado,80303,40.000542,-105.23886
2610 6TH ST,BOULDER,Colorado,80304,40.024225,-105.288601
3525 MOORHEAD AVE,BOULDER,Colorado,80305,39.994797,-105.250126
3855 BIRCHWOOD DR,BOULDER,Colorado,80304,40.044251,-105.26182
4017 WONDERLAND HILL AVE,BOULDER,Colorado,80304,40.047544,-105.287708
735 ARAPAHOE AVE,BOULDER,Colorado,80302,40.013151,-105.284956
196 N CEDAR BROOK RD,BOULDER,Colorado,80304,40.052621,-105.302993
4559 SANDPIPER CT,BOULDER,Colorado,80301,40.056095,-105.20093
4500 SANDPIPER CT,BOULDER,Colorado,80301,40.055939,-105.200054
944 YELLOW PINE AVE,BOULDER,Colorado,80304,40.059687,-105.285222
1460 KINGWOOD PL,BOULDER,Colorado,80304,40.039766,-105.278746
728 14TH ST,BOULDER,Colorado,80302,40.000597,-105.274611
2948 EAGLE WAY,BOULDER,Colorado,80301,40.030555,-105.254602
7112 OLD POST RD,BOULDER,Colorado,80301,40.0575,-105.187313
2833 BROADWAY,BOULDER,Colorado,80304,40.027374,-105.28238
3535 28TH ST,BOULDER,Colorado,80301,40.038802,-105.259553
4237 MONROE DR,BOULDER,Colorado,80303,40.005847,-105.241106
2290 JUNIPER AVE,BOULDER,Colorado,80304,40.036853,-105.266601
847 E MOORHEAD CIR,BOULDER,Colorado,80305,39.982072,-105.23671
1275 TAMARACK AVE,BOULDER,Colorado,80304,40.051899,-105.281139
2641 4TH ST,BOULDER,Colorado,80304,40.023988,-105.291717
4317 BUTLER CIR,BOULDER,Colorado,80305,39.978615,-105.245615
7469 SPY GLASS CT,BOULDER,Colorado,80301,40.068871,-105.180924
967 14TH ST,BOULDER,Colorado,80302,40.004807,-105.275371
963 10TH ST,BOULDER,Colorado,80302,40.004894,-105.28027
436 WEWOKA DR,BOULDER,Colorado,80303,39.994961,-105.17295
175 PAWNEE DR,BOULDER,Colorado,80303,39.990991,-105.236769
742 PEAKVIEW RD,BOULDER,Colorado,80302,40.096186,-105.325253
755 COTTAGE LN,BOULDER,Colorado,80304,40.051757,-105.286517
935 GRANDVIEW AVE,BOULDER,Colorado,80302,40.011301,-105.281868
3287 N 95TH ST,BOULDER,Colorado,80301,40.032172,-105.138168
1445 WESTVIEW DR,BOULDER,Colorado,80303,40.01207,-105.195986
4500 19TH ST LOT 367,BOULDER,Colorado,80304,40.055675,-105.275504
525 S 41ST ST,BOULDER,Colorado,80305,39.985274,-105.246684
2757 GLENWOOD CT,BOULDER,Colorado,80304,40.033611,-105.260062
50 SOUTH BOULDER CIR,BOULDER,Colorado,80303,39.98743,-105.229303
9198 FARRAND HALL,BOULDER,Colorado,80301,40.049468,-105.201421
1380 MEADOW AVE,BOULDER,Colorado,80304,40.043422,-105.279573
741 PEARL ST,BOULDER,Colorado,80302,40.016909,-105.285786
1444 WONDERVIEW CT,BOULDER,Colorado,80303,40.012005,-105.21051
916 14TH ST,BOULDER,Colorado,80302,40.004041,-105.27464
5000 BUTTE ST LOT 139,BOULDER,Colorado,80301,40.033979,-105.236179
2119 MAPLETON AVE,BOULDER,Colorado,80304,40.023761,-105.268782
2691 30TH ST,BOULDER,Colorado,80301,40.027535,-105.254336
5505 VALMONT RD LOT 212,BOULDER,Colorado,80301,40.034299,-105.223092
911 11TH ST,BOULDER,Colorado,80302,40.004039,-105.279042
6921 HARVEST RD,BOULDER,Colorado,80301,40.072493,-105.1921
3060 29TH ST,BOULDER,Colorado,80301,40.03114,-105.25581
1720 S MARSHALL RD TRLR 28,BOULDER,Colorado,80027,39.970084,-105.236156
2019 GROVE ST,BOULDER,Colorado,80302,40.015683,-105.26843
3765 SMUGGLER PL,BOULDER,Colorado,80305,39.965298,-105.249321
4691 INGRAM CT,BOULDER,Colorado,80305,39.987727,-105.238937
440 S 45TH ST,BOULDER,Colorado,80305,39.986575,-105.242378
1951 GRANDVIEW AVE,BOULDER,Colorado,80302,40.01209,-105.269021
4867 FAIRLAWN CIR,BOULDER,Colorado,80301,40.06317,-105.172552
7877 ANDREWS WAY,BOULDER,Colorado,80303,40.005986,-105.170037
9120 FARRAND HALL,BOULDER,Colorado,80301,40.049468,-105.201421
3386 HICKOK PL,BOULDER,Colorado,80301,40.034739,-105.249245
1561 S FOOTHILLS HWY LOT B1,BOULDER,Colorado,80305,39.956445,-105.231073
2430 GLENWOOD DR,BOULDER,Colorado,80304,40.032969,-105.265165
4140 MONROE DR,BOULDER,Colorado,80303,40.004769,-105.242418
1206 SUMAC AVE,BOULDER,Colorado,80304,40.050636,-105.281673
450 S 41ST ST,BOULDER,Colorado,80305,39.986403,-105.246111
805 LINDEN AVE,BOULDER,Colorado,80304,40.041343,-105.286461
7983 GRASMERE DR,BOULDER,Colorado,80301,40.061713,-105.166963
3315 HEIDELBERG DR,BOULDER,Colorado,80305,39.972944,-105.254386
700 38TH ST,BOULDER,Colorado,80303,40.000432,-105.245318
820 SPRUCE ST,BOULDER,Colorado,80302,40.017688,-105.284684
2507 BROADWAY,BOULDER,Colorado,80304,40.023464,-105.28231
2012 GROVE ST,BOULDER,Colorado,80302,40.015197,-105.268673
9049 ADEN HALL,BOULDER,Colorado,80301,40.049468,-105.201421
510 S 42ND ST,BOULDER,Colorado,80305,39.985641,-105.245199
525 VALLEY VIEW DR,BOULDER,Colorado,80304,40.025298,-105.288923
4500 19TH ST LOT 218,BOULDER,Colorado,80304,40.055675,-105.275504
5505 VALMONT RD LOT 170,BOULDER,Colorado,80301,40.034299,-105.223092
898 RACQUET LN,BOULDER,Colorado,80303,40.003193,-105.224075
1402 MEADOWLARK DR,BOULDER,Colorado,80303,40.01163,-105.196916
1360 FAIRFIELD DR,BOULDER,Colorado,80305,39.975712,-105.253762
2042 WALNUT ST,BOULDER,Colorado,80302,40.018984,-105.268241
3114 7TH ST,BOULDER,Colorado,80304,40.031484,-105.287636
5020 RALSTON ST,BOULDER,Colorado,80304,40.065571,-105.285848
604 TANTRA DR,BOULDER,Colorado,80305,39.98436,-105.238953
5908 JAY RD,BOULDER,Colorado,80301,40.050335,-105.216071
60 MANHATTAN DR,BOULDER,Colorado,80303,39.987206,-105.227213
2580 JUNIPER AVE,BOULDER,Colorado,80304,40.036843,-105.263732
2635 MAPLETON AVE LOT 31,BOULDER,Colorado,80304,40.026086,-105.261821
3653 CHASE CT,BOULDER,Colorado,80305,39.992998,-105.248102
2255 SPRUCE ST,BOULDER,Colorado,80302,40.022011,-105.266425
2845 7TH ST,BOULDER,Colorado,80304,40.027393,-105.289459
431 IRIS AVE,BOULDER,Colorado,80304,40.036184,-105.290432
6980 SWEET WATER CT,BOULDER,Colorado,80301,40.056742,-105.190513
792 14TH ST,BOULDER,Colorado,80302,40.001619,-105.27462
1750 OAK AVE,BOULDER,Colorado,80304,40.044541,-105.274944
1267 4 MILE CANYON DR,BOULDER,Colorado,80631,40.418808,-104.683837
1591 REDWOOD AVE,BOULDER,Colorado,80304,40.049555,-105.276855
4093 GUADELOUPE ST,BOULDER,Colorado,80301,40.049001,-105.252587
1130 BEREA DR,BOULDER,Colorado,80305,39.977853,-105.249773
DARLEY SOUTH HALL,BOULDER,Colorado,80305,39.978878,-105.252591
2510 VASSAR DR,BOULDER,Colorado,80305,39.985047,-105.260462
1165 GEORGETOWN RD,BOULDER,Colorado,80305,39.978159,-105.254867
2930 SHADOW CREEK DR,BOULDER,Colorado,80303,40.010181,-105.253981
9082 FARRAND HALL,BOULDER,Colorado,80301,40.049468,-105.201421
2980 EUCLID AVE,BOULDER,Colorado,80303,40.005025,-105.253725
2324 14TH ST,BOULDER,Colorado,80304,40.022012,-105.278178
1460 CAVAN CT,BOULDER,Colorado,80303,40.012238,-105.136007
9068 FARRAND HALL,BOULDER,Colorado,80301,40.049468,-105.201421
830 WAITE DR,BOULDER,Colorado,80303,40.003834,-105.234441
440 GRAPE AVE,BOULDER,Colorado,80304,40.033974,-105.290898
825 39TH ST,BOULDER,Colorado,80303,40.002458,-105.244932
3188 REDSTONE RD,BOULDER,Colorado,80305,39.965769,-105.253461
841 20TH ST,BOULDER,Colorado,80302,40.002565,-105.268083
1536 CHAMBERS DR,BOULDER,Colorado,80305,39.972973,-105.241015
1430 18TH ST,BOULDER,Colorado,80302,40.014372,-105.271321
4229 SUMAC CT,BOULDER,Colorado,80301,40.050674,-105.256029
2601 6TH ST,BOULDER,Colorado,80304,40.023948,-105.289313
1602 GOLD RUN RD,BOULDER,Colorado,80302,40.056983,-105.394089
1227 AIKINS WAY,BOULDER,Colorado,80305,39.976407,-105.239994
3356 SENTINEL DR,BOULDER,Colorado,80301,40.036077,-105.239695
790 NORTHSTAR CT,BOULDER,Colorado,80304,40.043513,-105.287519
730 38TH ST,BOULDER,Colorado,80303,40.001187,-105.245318
4110 RIVERSIDE AVE,BOULDER,Colorado,80304,40.049632,-105.281626
356 RIDGEVIEW LN,BOULDER,Colorado,80302,40.076382,-105.330963
2434 MAPLETON AVE,BOULDER,Colorado,80304,40.023947,-105.264419
5107 GALLATIN PL,BOULDER,Colorado,80303,40.009557,-105.231221
4630 MACKY WAY,BOULDER,Colorado,80305,39.975486,-105.239225
7150 SOUTH BOULDER RD,BOULDER,Colorado,80303,39.980631,-105.184229
2410 VASSAR DR,BOULDER,Colorado,80305,39.984777,-105.261561
2335 PANORAMA AVE,BOULDER,Colorado,80304,40.026507,-105.26662
3735 RIDGEWAY ST,BOULDER,Colorado,80301,40.042731,-105.249685
1475 KENDALL DR,BOULDER,Colorado,80305,39.973977,-105.25941
1077 9TH ST,BOULDER,Colorado,80302,40.007012,-105.282346
4560 SANDPIPER CT,BOULDER,Colorado,80301,40.056302,-105.200481
142 MEADOWLOOK WAY,BOULDER,Colorado,80304,40.053719,-105.302489
1077 CANYON BLVD,BOULDER,Colorado,80302,40.015786,-105.280895
1195 35TH ST,BOULDER,Colorado,80303,40.007101,-105.248688
825 GRAPE AVE,BOULDER,Colorado,80304,40.034453,-105.286727
465 S 43RD ST,BOULDER,Colorado,80305,39.986041,-105.244813
3605 TABLE MESA DR,BOULDER,Colorado,80305,39.985662,-105.252559
885 SWITZERLAND PARK RD,BOULDER,Colorado,80302,40.001757,-105.434779
3300 DOVER DR,BOULDER,Colorado,80305,39.986757,-105.253835
1318 SANDSTONE CT,BOULDER,Colorado,80305,39.975179,-105.260981
1320 UPLAND AVE,BOULDER,Colorado,80304,40.052447,-105.280449
1673 ZAMIA AVE,BOULDER,Colorado,80304,40.060397,-105.276139
401 PINE ST,BOULDER,Colorado,80027,39.976957,-105.137698
1510 20TH ST,BOULDER,Colorado,80302,40.013988,-105.268851
2237 6TH ST,BOULDER,Colorado,80302,40.019154,-105.288884
348 ARAPAHOE AVE,BOULDER,Colorado,80302,40.012632,-105.29289
2237 GOSS CIR E,BOULDER,Colorado,80302,40.016405,-105.26582
450 S 43RD ST,BOULDER,Colorado,80305,39.986405,-105.244252
3060 PEARL PKWY,BOULDER,Colorado,80301,40.023115,-105.252402
5520 STONEWALL PL,BOULDER,Colorado,80303,40.001401,-105.224643
1006 10TH ST,BOULDER,Colorado,80302,40.00562,-105.279549
1315 TIPPERARY ST,BOULDER,Colorado,80303,40.009119,-105.139387
645 MANHATTAN PL,BOULDER,Colorado,80303,39.999082,-105.230903
2590 JUNIPER AVE,BOULDER,Colorado,80304,40.037139,-105.263708
8196 MIDDLE FORK RD,BOULDER,Colorado,80302,40.117809,-105.289165
2228 CANYON BLVD,BOULDER,Colorado,80302,40.017003,-105.265461
5123 WILLIAMS FORK TRL,BOULDER,Colorado,80301,40.068735,-105.201741
7229 PETURSDALE CT,BOULDER,Colorado,80301,40.052341,-105.185963
2320 PANORAMA AVE,BOULDER,Colorado,80304,40.026083,-105.266891
3360 4TH ST,BOULDER,Colorado,80304,40.03619,-105.291369
1655 9TH ST,BOULDER,Colorado,80302,40.01287,-105.283623
2635 MAPLETON AVE LOT 162,BOULDER,Colorado,80304,40.026086,-105.261821
5950 OLDE STAGE RD,BOULDER,Colorado,80302,40.083193,-105.301577
4730 HOLIDAY DR,BOULDER,Colorado,80304,40.060462,-105.27937
3702 RIDGEWAY ST,BOULDER,Colorado,80301,40.042357,-105.249123
2905 16TH ST,BOULDER,Colorado,80304,40.028177,-105.276033
4007 WONDERLAND HILL AVE,BOULDER,Colorado,80304,40.047384,-105.287291
3700 WONDERLAND HILL AVE,BOULDER,Colorado,80304,40.041262,-105.290441
1475 FOLSOM ST,BOULDER,Colorado,80302,40.013643,-105.263409
7 BENTHAVEN PL,BOULDER,Colorado,80305,39.973396,-105.260527
7068 INDIAN PEAKS TRL,BOULDER,Colorado,80301,40.063325,-105.187842
6762 BUGLE CT,BOULDER,Colorado,80301,40.057878,-105.196084
955 16TH ST,BOULDER,Colorado,80302,40.004735,-105.272917
5539 JEWEL CREEK CT,BOULDER,Colorado,80301,40.0745,-105.196447
3105 23RD ST,BOULDER,Colorado,80304,40.031167,-105.267247
805 PINE BROOK RD,BOULDER,Colorado,80304,40.056851,-105.31093
4645 BROADWAY STE C1,BOULDER,Colorado,80304,40.059103,-105.282902
3345 CHISHOLM TRL,BOULDER,Colorado,80301,40.036002,-105.250731
660 S LASHLEY LN,BOULDER,Colorado,80305,39.984878,-105.2483
967 POORMAN RD,BOULDER,Colorado,80302,40.031776,-105.333952
415 S 42ND ST,BOULDER,Colorado,80305,39.986959,-105.245738
4410 SANDPIPER CIR,BOULDER,Colorado,80301,40.05485,-105.199897
5355 TENINO AVE,BOULDER,Colorado,80303,39.996746,-105.2271
575 MANHATTAN DR,BOULDER,Colorado,80303,39.997867,-105.230096
3309 4TH ST,BOULDER,Colorado,80304,40.035502,-105.291944
803 MARINE ST,BOULDER,Colorado,80302,40.012088,-105.2841
1575 ALPINE AVE,BOULDER,Colorado,80304,40.025746,-105.276006
4717 W MOORHEAD CIR,BOULDER,Colorado,80305,39.979858,-105.237808
1141 MONROE DR,BOULDER,Colorado,80303,40.006539,-105.242915
1420 RIVERSIDE AVE,BOULDER,Colorado,80304,40.049836,-105.280003
4486 HAMILTON CT,BOULDER,Colorado,80305,39.987879,-105.240423
3445 LONGWOOD AVE,BOULDER,Colorado,80305,39.968796,-105.252322
6264 FLAGSTAFF RD,BOULDER,Colorado,80302,39.97127,-105.338817
2202 BLUFF ST,BOULDER,Colorado,80304,40.024465,-105.267983
4720 HARRISON AVE,BOULDER,Colorado,80303,40.009123,-105.236753
2802 SUNDOWN LN,BOULDER,Colorado,80303,40.009761,-105.257708
315 S 36TH ST,BOULDER,Colorado,80305,39.988638,-105.251386
1925 30TH ST,BOULDER,Colorado,80301,40.020481,-105.254101
1538 CHAMBERS DR,BOULDER,Colorado,80305,39.9729,-105.241022
3961 BROADWAY,BOULDER,Colorado,80304,40.046685,-105.282391
3400 MADISON AVE,BOULDER,Colorado,80303,40.005708,-105.2495
6465 OUTRIGGER CT,BOULDER,Colorado,80301,40.05731,-105.203443
4775 WHITE ROCK CIR,BOULDER,Colorado,80301,40.059875,-105.214768
1230 ALBION RD,BOULDER,Colorado,80305,39.976492,-105.24913
720 TOEDTLI DR BSMT,BOULDER,Colorado,80305,39.981908,-105.247914
4435 WELLINGTON RD,BOULDER,Colorado,80301,40.055328,-105.213819
1579 48TH ST,BOULDER,Colorado,80303,40.014329,-105.235458
230 31ST ST,BOULDER,Colorado,80305,39.99497,-105.255583
2445 JUNIPER AVE,BOULDER,Colorado,80304,40.03754,-105.265209
4325 LUDLOW ST,BOULDER,Colorado,80305,39.975882,-105.245461
15 BUCKNELL CT,BOULDER,Colorado,80305,39.993136,-105.256395
4505 COMANCHE DR,BOULDER,Colorado,80303,39.997061,-105.237388
4875 SIOUX DR,BOULDER,Colorado,80303,39.993411,-105.233579
280 FOX DR,BOULDER,Colorado,80303,39.994104,-105.24369
3470 ASH AVE,BOULDER,Colorado,80305,39.994676,-105.25139
311 SPRUCE ST,BOULDER,Colorado,80302,40.01678,-105.292011
1193 OLD TALE RD,BOULDER,Colorado,80303,40.008114,-105.216633
1601 YELLOW PINE AVE,BOULDER,Colorado,80304,40.060338,-105.277185
7957 ARAPAHOE,BOULDER,Colorado,80303,40.01573,-105.16728
7269 WILLIAMS VILLAGE EAST HALL,BOULDER,Colorado,80301,40.049468,-105.201421
749 9TH ST,BOULDER,Colorado,80302,40.001532,-105.282297
4656 TANGLEWOOD TRL,BOULDER,Colorado,80301,40.059543,-105.17889
2005 SPRUCE ST,BOULDER,Colorado,80302,40.021391,-105.269916
3980 BOSQUE CT,BOULDER,Colorado,80301,40.047293,-105.252251
890 33RD ST,BOULDER,Colorado,80303,40.003543,-105.250035
2546 VINE PL,BOULDER,Colorado,80304,40.053005,-105.264015
4062 PINON DR,BOULDER,Colorado,80303,39.998057,-105.242836
2905 32ND ST,BOULDER,Colorado,80301,40.028245,-105.251911
3305 EUCLID AVE,BOULDER,Colorado,80303,40.005325,-105.250345
5818 ORCHARD CREEK LN,BOULDER,Colorado,80301,40.056157,-105.218796
875 7TH ST,BOULDER,Colorado,80302,40.003303,-105.285814
290 S 38TH ST,BOULDER,Colorado,80305,39.988613,-105.248545
602 MAXWELL AVE,BOULDER,Colorado,80304,40.021589,-105.288352
4965 TWIN LAKES RD,BOULDER,Colorado,80301,40.064955,-105.197108
415 ERIE DR,BOULDER,Colorado,80303,39.996693,-105.245679
2292 HOLYOKE DR,BOULDER,Colorado,80305,39.979564,-105.264735
1327 LARK CT,BOULDER,Colorado,80303,40.010492,-105.209739
964 UTICA CIR,BOULDER,Colorado,80304,40.05186,-105.284479
3735 SMUGGLER PL,BOULDER,Colorado,80305,39.96546,-105.249567
6623 ARAPAHOE RD,BOULDER,Colorado,80303,40.014934,-105.199277
1130 LEHIGH ST,BOULDER,Colorado,80305,39.97838,-105.259774
1301 30TH ST,BOULDER,Colorado,80303,40.009596,-105.253918
298 ARAPAHOE AVE,BOULDER,Colorado,80302,40.012343,-105.293878
301 PEARL ST,BOULDER,Colorado,80302,40.015626,-105.291927
3290 EUCLID AVE,BOULDER,Colorado,80303,40.005025,-105.251075
6590 FINLEY PL,BOULDER,Colorado,80301,40.070828,-105.199531
6200 HABITAT DR,BOULDER,Colorado,80301,40.0607,-105.208645
4995 CORNWALL DR,BOULDER,Colorado,80301,40.0652,-105.171456
4487 DRIFTWOOD PL,BOULDER,Colorado,80301,40.056001,-105.206189
2890 DARTMOUTH AVE,BOULDER,Colorado,80305,39.988835,-105.257696
3205 EMERSON AVE,BOULDER,Colorado,80305,39.975332,-105.254527
747 POPLAR AVE,BOULDER,Colorado,80304,40.047046,-105.287666
4080 WELSH PL,BOULDER,Colorado,80301,40.049206,-105.257598
1025 ADAMS CIR,BOULDER,Colorado,80303,40.005586,-105.255703
720 17TH ST,BOULDER,Colorado,80302,40.000561,-105.270932
2238 CANYON BLVD,BOULDER,Colorado,80302,40.017107,-105.265157
4685 MACKY WAY,BOULDER,Colorado,80305,39.976467,-105.238258
519 LOST ANGEL RD,BOULDER,Colorado,80302,40.014192,-105.385164
150 MANHATTAN DR,BOULDER,Colorado,80303,39.989785,-105.227361
740 S 43RD ST,BOULDER,Colorado,80305,39.982848,-105.244253
870 ORMAN DR,BOULDER,Colorado,80303,40.004536,-105.238229
1464 KENNEDY CT,BOULDER,Colorado,80303,40.01215,-105.231876
160 S LASHLEY LN,BOULDER,Colorado,80305,39.990639,-105.256456
1000 OAKDALE PL,BOULDER,Colorado,80304,40.044772,-105.284346
7014 INDIAN PEAKS TRL,BOULDER,Colorado,80301,40.061444,-105.189517
4500 19TH ST LOT 360,BOULDER,Colorado,80304,40.055675,-105.275504
1019 E MOORHEAD CIR,BOULDER,Colorado,80305,39.980095,-105.236506
9020 FARRAND HALL,BOULDER,Colorado,80301,40.049468,-105.201421
3350 30TH ST,BOULDER,Colorado,80301,40.035788,-105.253209
7575 PANORAMA DR,BOULDER,Colorado,80303,39.974985,-105.176722
5511 STONEWALL PL,BOULDER,Colorado,80303,40.001619,-105.225008
1520 CHAMBERS DR,BOULDER,Colorado,80305,39.972998,-105.240333
3255 15TH ST,BOULDER,Colorado,80304,40.034351,-105.278585
4362 PEACH CT,BOULDER,Colorado,80301,40.054229,-105.251339
1026 15TH ST,BOULDER,Colorado,80302,40.006046,-105.273425
1245 EAST RIDGE AVE,BOULDER,Colorado,80303,40.008976,-105.254579
4685 HARRISON AVE,BOULDER,Colorado,80303,40.009982,-105.237795
6701 JAY RD,BOULDER,Colorado,80301,40.051507,-105.197363
1011 RAINBOW WAY,BOULDER,Colorado,80303,40.005106,-105.203666
425 S 43RD ST,BOULDER,Colorado,80305,39.986765,-105.244813
32 PIMA CT,BOULDER,Colorado,80303,39.987784,-105.23451
126 MINEOLA CT,BOULDER,Colorado,80303,39.988482,-105.221772
7436 AUGUSTA DR,BOULDER,Colorado,80301,40.070636,-105.180511
300 19TH ST,BOULDER,Colorado,80302,39.996342,-105.268458
3325 DOVER DR,BOULDER,Colorado,80305,39.987271,-105.253576
653 FURMAN WAY,BOULDER,Colorado,80305,39.982942,-105.26618
962 10TH ST,BOULDER,Colorado,80302,40.004822,-105.279553
911 CRESCENT DR,BOULDER,Colorado,80303,40.003779,-105.231395
2760 DARLEY AVE,BOULDER,Colorado,80305,39.978551,-105.259203
315 BELLEVUE DR,BOULDER,Colorado,80302,39.996537,-105.276307
7856 ARLINGTON DR,BOULDER,Colorado,80303,40.006477,-105.170046
4885 EISENHOWER DR,BOULDER,Colorado,80303,40.012746,-105.233759
6244 SIMMONS DR,BOULDER,Colorado,80303,40.00549,-105.207675
5855 S ORCHARD CREEK CIR,BOULDER,Colorado,80301,40.055518,-105.217786
2760 ILIFF ST,BOULDER,Colorado,80305,39.970886,-105.257485
3288 SENTINEL DR,BOULDER,Colorado,80301,40.034266,-105.239701
525 ORD DR,BOULDER,Colorado,80303,39.996657,-105.169814
3380 FOLSOM ST,BOULDER,Colorado,80304,40.036045,-105.26307
3440 COLORADO AVE,BOULDER,Colorado,80303,40.007071,-105.249681
3867 ARBOL CT,BOULDER,Colorado,80301,40.045395,-105.252456
2880 KALMIA AVE,BOULDER,Colorado,80301,40.038268,-105.256035
930 QUINCE AVE,BOULDER,Colorado,80304,40.047725,-105.285295
3003 VALMONT RD LOT 129,BOULDER,Colorado,80301,40.031073,-105.252567
2832 BROADWAY,BOULDER,Colorado,80304,40.027559,-105.281867
3970 COLORADO AVE,BOULDER,Colorado,80303,40.007023,-105.244509
935 16TH ST,BOULDER,Colorado,80302,40.004473,-105.272914
3025 ASH AVE,BOULDER,Colorado,80305,39.993251,-105.257844
1020 14TH ST,BOULDER,Colorado,80302,40.006043,-105.274657
175 GOLD RUN RD,BOULDER,Colorado,80302,40.050408,-105.373633
4852 5TH ST,BOULDER,Colorado,80304,40.063236,-105.288099
4310 CLAY COMMONS CT,BOULDER,Colorado,80303,40.000418,-105.23984
1133 TIMBER LN,BOULDER,Colorado,80304,40.04316,-105.308918
566 DAKOTA BLVD,BOULDER,Colorado,80304,40.065157,-105.287645
725 35TH ST,BOULDER,Colorado,80303,40.000775,-105.248698
1842 SPRUCE ST,BOULDER,Colorado,80302,40.020478,-105.271283
4867 VALHALLA DR,BOULDER,Colorado,80301,40.071009,-105.240729
1000 AURORA AVE,BOULDER,Colorado,80302,40.003529,-105.279638
210 S 39TH ST,BOULDER,Colorado,80305,39.989825,-105.246663
3355 STANFORD AVE,BOULDER,Colorado,80305,39.985678,-105.253943
2750 47TH ST,BOULDER,Colorado,80301,40.026685,-105.243152
2049 YARMOUTH AVE,BOULDER,Colorado,80301,40.05923,-105.268855
545 UNIVERSITY AVE,BOULDER,Colorado,80302,40.01082,-105.288151
2635 MAPLETON AVE LOT 11A,BOULDER,Colorado,80304,40.026086,-105.261821
4205 GILPIN DR,BOULDER,Colorado,80303,40.001376,-105.241358
4993 CLUBHOUSE CT,BOULDER,Colorado,80301,40.065204,-105.183333
3003 VALMONT RD LOT 223,BOULDER,Colorado,80301,40.031073,-105.252567
4430 BROADWAY,BOULDER,Colorado,80304,40.055089,-105.2818
3661 CHASE CT,BOULDER,Colorado,80305,39.992763,-105.248445
606 LINDEN PARK DR,BOULDER,Colorado,80304,40.041328,-105.288924
1023 FOREST AVE,BOULDER,Colorado,80304,40.033112,-105.283666
7262 OLD POST RD,BOULDER,Colorado,80301,40.059883,-105.183594
4495 ABERDEEN PL,BOULDER,Colorado,80301,40.0564,-105.176472
1011 RAINBOW WAY LOWR LOWR,BOULDER,Colorado,80303,40.005106,-105.203666
1478 GREENBRIAR BLVD,BOULDER,Colorado,80305,39.972572,-105.239968
4465 MARTIN DR,BOULDER,Colorado,80305,39.987822,-105.242369
3064 9TH ST,BOULDER,Colorado,80304,40.030468,-105.285223
2988 EAGLE WAY,BOULDER,Colorado,80301,40.030928,-105.254488
7132 BASELINE RD,BOULDER,Colorado,80303,39.996767,-105.187049
1555 BROADWAY,BOULDER,Colorado,80302,40.012453,-105.278785
2701 MAPLETON AVE,BOULDER,Colorado,80304,40.025505,-105.260274
923 7TH ST,BOULDER,Colorado,80302,40.00423,-105.286353
880 35TH ST,BOULDER,Colorado,80303,40.003544,-105.248047
5139 SUGARLOAF RD,BOULDER,Colorado,80302,40.017982,-105.421802
5299 CYPRESS DR,BOULDER,Colorado,80303,40.001095,-105.227848
670 WALDEN CIR,BOULDER,Colorado,80305,39.983669,-105.235986
4493 CANTERBURY DR,BOULDER,Colorado,80301,40.056263,-105.174816
1035 ROXWOOD LN,BOULDER,Colorado,80303,40.006287,-105.22586
1718 CANYON BLVD,BOULDER,Colorado,80302,40.017048,-105.272179
1545 48TH ST,BOULDER,Colorado,80303,40.01356,-105.23508
7912 ARAPAHOE,BOULDER,Colorado,80303,40.013776,-105.167722
3727 BARBADOS PL,BOULDER,Colorado,80301,40.049994,-105.249995
3401 ARAPAHOE AVE,BOULDER,Colorado,80303,40.015888,-105.249335
1945 KOHLER DR,BOULDER,Colorado,80305,39.987443,-105.268858
695 EMPORIA RD,BOULDER,Colorado,80305,39.981702,-105.266619
4777 10TH ST,BOULDER,Colorado,80304,40.061427,-105.285282
125 IROQUOIS DR,BOULDER,Colorado,80303,39.98867,-105.228727
2186 KINCAID PL,BOULDER,Colorado,80304,40.038458,-105.2689
5113 WILLIAMS FORK TRL,BOULDER,Colorado,80301,40.06775,-105.199503
1800 WALNUT ST,BOULDER,Colorado,80302,40.018349,-105.27174
4676 INGRAM CT,BOULDER,Colorado,80305,39.986851,-105.23984
1074 ROSE HILL DR,BOULDER,Colorado,80302,40.006912,-105.285248
4300 CHIPPEWA DR,BOULDER,Colorado,80303,39.996933,-105.239739
1560 LEHIGH ST,BOULDER,Colorado,80305,39.972442,-105.259776
5000 BUTTE ST LOT 293,BOULDER,Colorado,80301,40.033979,-105.236179
2636 GRAPEWOOD LN,BOULDER,Colorado,80304,40.034115,-105.262402
3174 FOUNDRY PL,BOULDER,Colorado,80301,40.026574,-105.252232
3190 STANFORD AVE,BOULDER,Colorado,80305,39.985645,-105.255277
2435 GLENWOOD DR,BOULDER,Colorado,80304,40.033389,-105.265185
1221 LEFTHAND CANYON DR,BOULDER,Colorado,80302,40.12711,-105.301488
4450 DRIFTWOOD PL,BOULDER,Colorado,80301,40.055178,-105.204644
276 SPRUCE ST,BOULDER,Colorado,80302,40.016,-105.292861
845 GRANT PL,BOULDER,Colorado,80302,40.002709,-105.28348
735 MAPLETON AVE,BOULDER,Colorado,80304,40.020909,-105.28672
2330 GLENWOOD DR,BOULDER,Colorado,80304,40.032975,-105.266415
1788 TIMBER LN,BOULDER,Colorado,80304,40.046436,-105.315748
1457 OLD TALE RD,BOULDER,Colorado,80303,40.01238,-105.216151
2160 GODDARD PL,BOULDER,Colorado,80305,39.982068,-105.265189
3365 DOVER DR,BOULDER,Colorado,80305,39.987331,-105.253293
2635 MAPLETON AVE LOT 89,BOULDER,Colorado,80304,40.026086,-105.261821
2635 MAPLETON AVE,BOULDER,Colorado,80304,40.026086,-105.261821
3875 15TH ST,BOULDER,Colorado,80304,40.044884,-105.278993
759 19TH ST,BOULDER,Colorado,80302,40.001209,-105.269188
1029 BROADWAY,BOULDER,Colorado,80302,40.006233,-105.273426
4901 EUCLID AVE,BOULDER,Colorado,80303,40.005866,-105.231399
2013 MAPLETON AVE,BOULDER,Colorado,80304,40.023415,-105.27044
2013 MAPLETON AVE FRNT,BOULDER,Colorado,80304,40.023415,-105.27044
647 NORTH ST,BOULDER,Colorado,80304,40.024861,-105.287445
2343 9TH ST,BOULDER,Colorado,80304,40.021409,-105.285113
1705 MARINE ST,BOULDER,Colorado,80302,40.01391,-105.272343
2020 FLORAL DR,BOULDER,Colorado,80304,40.031147,-105.271421
766 GRANT PL,BOULDER,Colorado,80302,40.001156,-105.282806
1536 EASY RIDER LN,BOULDER,Colorado,80304,40.060102,-105.278167
260 BRISTLECONE WAY,BOULDER,Colorado,80304,40.040956,-105.3231
2023 WALNUT ST,BOULDER,Colorado,80302,40.019455,-105.268814
6803 JAY RD,BOULDER,Colorado,80301,40.052358,-105.194257
3767 TALISMAN PL,BOULDER,Colorado,80301,40.035555,-105.246342
4595 14TH ST,BOULDER,Colorado,80304,40.057944,-105.280223
2911 7TH ST,BOULDER,Colorado,80304,40.028269,-105.288292
801 18TH ST,BOULDER,Colorado,80302,40.002026,-105.270431
3460 EVERETT DR,BOULDER,Colorado,80305,39.973519,-105.252623
1082 BEREA DR,BOULDER,Colorado,80305,39.978478,-105.248576
1025 PARAGON DR,BOULDER,Colorado,80303,39.978666,-105.181446
5229 PIERRE ST,BOULDER,Colorado,80304,40.0678,-105.28752
4721 MCKINLEY DR,BOULDER,Colorado,80303,40.011922,-105.236116
740 1/2 SPRUCE ST,BOULDER,Colorado,80302,40.017475,-105.285781
1407 KENNEDY CT,BOULDER,Colorado,80303,40.011378,-105.23224
510 LOGAN MILL RD,BOULDER,Colorado,80302,40.039437,-105.369213
1700 17TH ST,BOULDER,Colorado,80302,40.016421,-105.272334
3000 15TH ST,BOULDER,Colorado,80304,40.030287,-105.276203
1107 12TH ST,BOULDER,Colorado,80302,40.007656,-105.277846
7625 SOUTH BOULDER RD,BOULDER,Colorado,80303,39.987232,-105.174728
4511 STARBOARD CT,BOULDER,Colorado,80301,40.058235,-105.203404
4059 DAWN CT,BOULDER,Colorado,80304,40.048653,-105.260322
290 HOPI PL,BOULDER,Colorado,80303,39.993817,-105.242569
2961 SHADY HOLLOW E,BOULDER,Colorado,80304,40.028511,-105.260138
520 S 46TH ST,BOULDER,Colorado,80305,39.985473,-105.24141
984 13TH ST,BOULDER,Colorado,80302,40.005279,-105.27588
3004 BROADWAY,BOULDER,Colorado,80304,40.029423,-105.281723
3858 CAMPO CT,BOULDER,Colorado,80301,40.045102,-105.250738
1500 TAMARACK AVE,BOULDER,Colorado,80304,40.051421,-105.278639
1504 PINE ST,BOULDER,Colorado,80302,40.020491,-105.27644
704 MOHAWK DR,BOULDER,Colorado,80303,40.001218,-105.236029
4500 19TH ST LOT 430,BOULDER,Colorado,80304,40.055675,-105.275504
311 DIME RD,BOULDER,Colorado,80302,40.036457,-105.374456
765 32ND ST,BOULDER,Colorado,80303,40.001577,-105.251477
355 PARAGON DR,BOULDER,Colorado,80303,39.984464,-105.174817
2201 PEARL ST,BOULDER,Colorado,80302,40.021021,-105.266736
465 S 39TH ST,BOULDER,Colorado,80305,39.986035,-105.248524
4072 BEAR CREEK APTS B,BOULDER,Colorado,80403,39.770095,-105.266409
5122 WILLIAMS FORK TRL,BOULDER,Colorado,80301,40.065849,-105.201048
2318 PINE ST,BOULDER,Colorado,80302,40.02274,-105.265569
59 HALLETT HALL,BOULDER,Colorado,80301,40.049468,-105.201421
2554 LINDEN DR,BOULDER,Colorado,80304,40.051125,-105.31713
5000 BUTTE ST LOT 48,BOULDER,Colorado,80301,40.033979,-105.236179
3135 ARNETT ST,BOULDER,Colorado,80304,40.031728,-105.26237
4016 N 63RD ST,BOULDER,Colorado,80301,40.04764,-105.20669
1197 ORANGE PL,BOULDER,Colorado,80304,40.04444,-105.282334
2550 WOODSTOCK PL,BOULDER,Colorado,80305,39.976074,-105.26083
3859 PASEO DEL PRADO,BOULDER,Colorado,80301,40.04482,-105.257313
2102 GROVE CIR W,BOULDER,Colorado,80302,40.015274,-105.267659
2345 SPRUCE ST,BOULDER,Colorado,80302,40.022418,-105.264916
205 30TH ST,BOULDER,Colorado,80305,39.994666,-105.257455
1503 BRADLEY DR,BOULDER,Colorado,80305,39.972531,-105.238968
2360 DENNISON LN,BOULDER,Colorado,80305,39.98415,-105.262119
2965 VALMONT RD,BOULDER,Colorado,80301,40.029977,-105.255184
2140 KALMIA CIR,BOULDER,Colorado,80304,40.039274,-105.269963
2875 COUNTY RD 67,BOULDER,Colorado,80303,39.933514,-105.27123
7450 VALMONT RD,BOULDER,Colorado,80301,40.033114,-105.179855
2600 TAFT DR,BOULDER,Colorado,80302,40.010825,-105.259812
3061 FOOTHILLS RANCH DR,BOULDER,Colorado,80302,40.151931,-105.283091
3192 11TH ST,BOULDER,Colorado,80304,40.032685,-105.282965
1535 PINE ST,BOULDER,Colorado,80302,40.021206,-105.275953
2370 PANORAMA AVE,BOULDER,Colorado,80304,40.026088,-105.265536
2297 HOLYOKE DR,BOULDER,Colorado,80305,39.980066,-105.264977
3810 HAUPTMAN CT,BOULDER,Colorado,80301,40.043985,-105.251176
3978 ESCUELA CT,BOULDER,Colorado,80301,40.047195,-105.249205
254 PINE TREE LN,BOULDER,Colorado,80304,40.045653,-105.319558
2225 BLUEBELL AVE,BOULDER,Colorado,80302,39.997527,-105.26397
4160 26TH ST,BOULDER,Colorado,80304,40.050313,-105.262997
710 GRAPE AVE,BOULDER,Colorado,80304,40.033816,-105.287573
8264 KINCROSS DR,BOULDER,Colorado,80301,40.05863,-105.159868
2851 SPRINGDALE LN,BOULDER,Colorado,80303,40.009307,-105.25714
2018 COLUMBINE AVE,BOULDER,Colorado,80302,39.998883,-105.267189
959 MARINE ST,BOULDER,Colorado,80302,40.012564,-105.281211
1015 PENNSYLVANIA AVE,BOULDER,Colorado,80302,40.008921,-105.279418
445 LIPAN WAY,BOULDER,Colorado,80303,39.994621,-105.240214
2105 WALNUT ST,BOULDER,Colorado,80302,40.019753,-105.2677
4557 APPLE WAY,BOULDER,Colorado,80301,40.052446,-105.24781
3455 ASH AVE,BOULDER,Colorado,80305,39.994766,-105.252168
3465 ASH AVE,BOULDER,Colorado,80305,39.994867,-105.252072
4074 BEAR CREEK APTS B,BOULDER,Colorado,80403,39.770037,-105.266365
715 AURORA AVE,BOULDER,Colorado,80302,40.00396,-105.285016
635 WALDEN CIR,BOULDER,Colorado,80305,39.984345,-105.236263
1050 TANTRA PARK CIR,BOULDER,Colorado,80305,39.979439,-105.239294
3335 MOORHEAD AVE,BOULDER,Colorado,80305,39.996308,-105.252749
3867 CAMPO CT,BOULDER,Colorado,80301,40.045725,-105.251153
1017 LARAMIE BLVD,BOULDER,Colorado,80304,40.065802,-105.284216
665 MANHATTAN DR,BOULDER,Colorado,80303,39.999013,-105.230091
7752 ESSEX PL,BOULDER,Colorado,80301,40.060056,-105.171453
2667 SHERWOOD CIR,BOULDER,Colorado,80304,40.039437,-105.26157
3747 TALISMAN PL,BOULDER,Colorado,80301,40.03549,-105.246625
1600 MARIPOSA AVE,BOULDER,Colorado,80302,39.997972,-105.272175
4603 GREYLOCK ST,BOULDER,Colorado,80301,40.058656,-105.168635
2291 PLACID DR,BOULDER,Colorado,80301,40.021762,-105.144078
660 S 40TH ST,BOULDER,Colorado,80305,39.983604,-105.247182
1225 EDINBORO DR,BOULDER,Colorado,80305,39.977219,-105.253218
2927 BROADWAY,BOULDER,Colorado,80304,40.02837,-105.282382
635 MOHAWK DR,BOULDER,Colorado,80303,39.99878,-105.237008
5932 GUNBARREL AVE,BOULDER,Colorado,80301,40.060809,-105.214741
3055 CORONA TRL,BOULDER,Colorado,80301,40.035786,-105.250796
295 GREEN ROCK DR,BOULDER,Colorado,80302,40.018574,-105.292506
4887 OLD POST CIR,BOULDER,Colorado,80301,40.063595,-105.180387
1405 ALPINE AVE,BOULDER,Colorado,80304,40.025726,-105.278182
717 COUNTY RD 83,BOULDER,Colorado,80302,40.064861,-105.367967
3787 TALISMAN PL,BOULDER,Colorado,80301,40.035241,-105.246268
3841 FREDERICKS CT,BOULDER,Colorado,80301,40.044371,-105.252267
4606 FIELD CT,BOULDER,Colorado,80301,40.058626,-105.184195
5205 WATERSTONE DR,BOULDER,Colorado,80301,40.058885,-105.23131
949 MARINE ST,BOULDER,Colorado,80302,40.012502,-105.281884
5222 WATERSTONE DR,BOULDER,Colorado,80301,40.059422,-105.230248
1707 YARMOUTH AVE,BOULDER,Colorado,80304,40.058408,-105.276061
4140 AURORA AVE,BOULDER,Colorado,80303,40.003908,-105.241779
3110 FREMONT ST,BOULDER,Colorado,80304,40.031691,-105.264793
1440 OAK CIR,BOULDER,Colorado,80304,40.04486,-105.279501
2975 COLLEGE AVE,BOULDER,Colorado,80303,40.007109,-105.254624
2625 TABRIZ PL,BOULDER,Colorado,80304,40.035928,-105.262086
606 DEWEY AVE,BOULDER,Colorado,80304,40.023503,-105.288176
2500 N 75TH ST,BOULDER,Colorado,80301,40.02373,-105.168713
1311 YELLOW PINE AVE,BOULDER,Colorado,80304,40.05969,-105.280822
310 S 38TH ST,BOULDER,Colorado,80305,39.988436,-105.248619
305 FOX DR,BOULDER,Colorado,80303,39.99512,-105.244284
4590 MARTIN DR,BOULDER,Colorado,80305,39.986043,-105.241403
6144 HABITAT DR,BOULDER,Colorado,80301,40.060218,-105.210146
1116 6TH ST,BOULDER,Colorado,80302,40.007852,-105.286941
7850 4 MILE CANYON DR,BOULDER,Colorado,80549,40.698949,-105.003133
200 BROOK PL,BOULDER,Colorado,80302,39.995403,-105.269053
4359 VINCA CT,BOULDER,Colorado,80304,40.053506,-105.26635
7351 WINDSOR DR,BOULDER,Colorado,80301,40.067629,-105.18317
1035 ADAMS CIR,BOULDER,Colorado,80303,40.005584,-105.254897
4611 CHATHAM PL,BOULDER,Colorado,80301,40.058435,-105.174062
2133 CANYON BLVD,BOULDER,Colorado,80302,40.017556,-105.266877
47 WILLARD HALL,BOULDER,Colorado,80301,40.049468,-105.201421
2236 NICHOLL ST,BOULDER,Colorado,80304,40.029208,-105.269293
4875 WHITE ROCK CIR,BOULDER,Colorado,80301,40.060514,-105.212575
3050 CORONA TRL,BOULDER,Colorado,80301,40.035735,-105.250732
2111 MAPLETON AVE,BOULDER,Colorado,80304,40.023623,-105.268916
1606 PINE ST,BOULDER,Colorado,80302,40.020811,-105.275152
3220 47TH ST,BOULDER,Colorado,80301,40.032428,-105.244
4647 18TH ST,BOULDER,Colorado,80304,40.05882,-105.275601
1314 SANDSTONE CT,BOULDER,Colorado,80305,39.975313,-105.260413
910 28TH ST,BOULDER,Colorado,80303,40.004474,-105.257903
1350 YARMOUTH AVE,BOULDER,Colorado,80304,40.058054,-105.280494
3841 PASEO DEL PRADO,BOULDER,Colorado,80301,40.044406,-105.257209
885 HARTFORD DR,BOULDER,Colorado,80305,39.981142,-105.256682
6968 SOUTH BOULDER RD,BOULDER,Colorado,80303,39.985182,-105.191155
1555 BRADLEY DR,BOULDER,Colorado,80305,39.971852,-105.239178
4157 LONETREE CT,BOULDER,Colorado,80301,40.050107,-105.247199
7267 OLDE STAGE RD,BOULDER,Colorado,80302,40.106672,-105.304257
3007 10TH ST,BOULDER,Colorado,80304,40.029442,-105.284718
3167 BROADWAY,BOULDER,Colorado,80304,40.032323,-105.282371
1833 FOLSOM ST,BOULDER,Colorado,80302,40.018415,-105.263808
4830 TANGLEWOOD TRL,BOULDER,Colorado,80301,40.06233,-105.178931
4221 30TH ST,BOULDER,Colorado,80301,40.051401,-105.25543
49 KITTREDGE WEST HALL,BOULDER,Colorado,80301,40.049468,-105.201421
4840 THUNDERBIRD DR,BOULDER,Colorado,80303,39.99539,-105.234004
3685 CAYMAN PL,BOULDER,Colorado,80301,40.050804,-105.250215
5106 BUCKINGHAM RD,BOULDER,Colorado,80301,40.066583,-105.179702
2865 SUNDOWN LN,BOULDER,Colorado,80303,40.01013,-105.257135
4722 16TH ST,BOULDER,Colorado,80304,40.060696,-105.277295
2810 1/2 CORDRY CT,BOULDER,Colorado,80303,40.011593,-105.256539
5693 CASCADE PL,BOULDER,Colorado,80303,40.00056,-105.221423
1152 ORANGE PL,BOULDER,Colorado,80304,40.043883,-105.282667
2510 TAFT DR,BOULDER,Colorado,80302,40.010161,-105.262646
440 ERIE DR,BOULDER,Colorado,80303,39.997069,-105.244693
3405 ENDICOTT DR,BOULDER,Colorado,80305,39.97462,-105.252843
960 6TH ST,BOULDER,Colorado,80302,40.004664,-105.286368
66 NIGHTSHADE DR,BOULDER,Colorado,80302,40.014593,-105.449378
2119 SPRUCE ST,BOULDER,Colorado,80302,40.021819,-105.267948
4575 BEACHCOMBER CT,BOULDER,Colorado,80301,40.056977,-105.206083
2415 SPRUCE ST,BOULDER,Colorado,80302,40.022526,-105.264379
4840 MEREDITH WAY,BOULDER,Colorado,80303,40.013497,-105.234106
1590 EISENHOWER DR,BOULDER,Colorado,80303,40.014072,-105.231391
546 LOCUST PL,BOULDER,Colorado,80304,40.053144,-105.290032
315 S 42ND ST,BOULDER,Colorado,80305,39.988481,-105.245167
4309 N 51ST ST,BOULDER,Colorado,80301,40.053058,-105.235444
2026 4 MILE CANYON DR,BOULDER,Colorado,80631,40.405521,-104.683891
4695 16TH ST,BOULDER,Colorado,80304,40.060021,-105.277702
2425 BALSAM DR,BOULDER,Colorado,80304,40.027195,-105.264952
5843 RUSTIC KNOLLS DR,BOULDER,Colorado,80301,40.041221,-105.217257
2461 TAMARACK AVE,BOULDER,Colorado,80304,40.052186,-105.265009
7345 BUCKINGHAM CT,BOULDER,Colorado,80301,40.06668,-105.181511
1611 PINE ST,BOULDER,Colorado,80302,40.021363,-105.275178
4605 NASSAU PL,BOULDER,Colorado,80301,40.049061,-105.244999
820 18TH ST,BOULDER,Colorado,80302,40.002503,-105.269697
2190 TAMARACK AVE,BOULDER,Colorado,80304,40.0517,-105.268351
5276 PENNSYLVANIA AVE,BOULDER,Colorado,80303,40.006254,-105.230631
890 MCINTIRE ST,BOULDER,Colorado,80303,40.003916,-105.233782
1559 BRADLEY DR,BOULDER,Colorado,80305,39.971949,-105.239148
200 PAWNEE DR,BOULDER,Colorado,80303,39.991496,-105.236029
1422 KINGWOOD PL,BOULDER,Colorado,80304,40.039742,-105.279469
1150 COLLEGE AVE,BOULDER,Colorado,80302,40.007018,-105.277842
2850 E COLLEGE AVE,BOULDER,Colorado,80303,40.006828,-105.257317
949 BROADWAY,BOULDER,Colorado,80302,40.004391,-105.270048
1140 POPLAR AVE,BOULDER,Colorado,80304,40.046187,-105.282648
805 16TH ST,BOULDER,Colorado,80302,40.002047,-105.272895
525 MANHATTAN DR,BOULDER,Colorado,80303,39.99675,-105.230245
721 9TH ST,BOULDER,Colorado,80302,40.001057,-105.282299
955 UNIVERSITY AVE,BOULDER,Colorado,80302,40.010835,-105.280473
2521 BROADWAY,BOULDER,Colorado,80304,40.023784,-105.282425
1075 11TH ST,BOULDER,Colorado,80302,40.006793,-105.279058
2790 VASSAR DR,BOULDER,Colorado,80305,39.984982,-105.258206
704 SPRUCE ST,BOULDER,Colorado,80302,40.017292,-105.286677
2655 MAPLETON AVE,BOULDER,Colorado,80304,40.025613,-105.260669
120 S 36TH ST,BOULDER,Colorado,80305,39.99135,-105.250898
1897 JOLIET WAY,BOULDER,Colorado,80305,39.967661,-105.255361
3936 BOSQUE CT,BOULDER,Colorado,80301,40.046548,-105.251975
1632 YELLOW PINE AVE,BOULDER,Colorado,80304,40.060005,-105.277204
2689 JUNIPER AVE,BOULDER,Colorado,80304,40.038125,-105.26095
627 WALDEN CIR,BOULDER,Colorado,80305,39.984777,-105.236824
5535 MESA TOP CT,BOULDER,Colorado,80301,40.07513,-105.197536
2230 WALNUT ST,BOULDER,Colorado,80302,40.019613,-105.265511
1600 BRADLEY CT,BOULDER,Colorado,80305,39.972559,-105.238523
155 SHOSHONE CT,BOULDER,Colorado,80303,39.989096,-105.230247
5206 GALLATIN PL,BOULDER,Colorado,80303,40.008903,-105.22983
5505 VALMONT RD LOT 253,BOULDER,Colorado,80301,40.034299,-105.223092
3871 ARBOL CT,BOULDER,Colorado,80301,40.045118,-105.252789
1080 14TH ST,BOULDER,Colorado,80302,40.006828,-105.274664
3970 ESCUELA CT,BOULDER,Colorado,80301,40.047008,-105.249201
418 LEE HILL DR,BOULDER,Colorado,80302,40.062745,-105.29056
